$GPGGA,080835.566,4008.526,N,03300.410,E,1,12,1.0,0.0,M,0.0,M,,*65
$GPGSA,A,3,01,02,03,04,05,06,07,08,09,10,11,12,1.0,1.0,1.0*30
$GPRMC,080835.566,A,4008.526,N,03300.410,E,000.0,000.0,191124,000.0,W*7F
$GPGGA,080835.616,4008.526,N,03300.410,E,1,12,1.0,0.0,M,0.0,M,,*61
$GPGSA,A,3,01,02,03,04,05,06,07,08,09,10,11,12,1.0,1.0,1.0*30
$GPRMC,080835.616,A,4008.526,N,03300.410,E,000.0,000.0,191124,000.0,W*7B
$GPGGA,080835.666,4008.526,N,03300.410,E,1,12,1.0,0.0,M,0.0,M,,*66
$GPGSA,A,3,01,02,03,04,05,06,07,08,09,10,11,12,1.0,1.0,1.0*30
$GPRMC,080835.666,A,4008.526,N,03300.410,E,000.0,000.0,191124,000.0,W*7C
$GPGGA,080835.716,4008.526,N,03300.410,E,1,12,1.0,0.0,M,0.0,M,,*40
$GPGSA,A,3,01,02,03,04,05,06,07,08,09,10,11,12,1.0,1.0,1.0*30
$GPRMC,080835.716,A,4008.526,N,03300.410,E,000.0,000.0,191124,000.0,W*7A
$GPGGA,080835.766,4008.526,N,03300.410,E,1,12,1.0,0.0,M,0.0,M,,*67
$GPGSA,A,3,01,02,03,04,05,06,07,08,09,10,11,12,1.0,1.0,1.0*30
$GPRMC,080835.766,A,4008.526,N,03300.410,E,000.0,000.0,191124,000.0,W*7D
$GPGGA,080835.816,4008.526,N,03300.410,E,1,12,1.0,0.0,M,0.0,M,,*70
$GPGSA,A,3,01,02,03,04,05,06,07,08,09,10,11,12,1.0,1.0,1.0*30
$GPRMC,080835.816,A,4008.526,N,03300.410,E,000.0,000.0,191124,000.0,W*75
$GPGGA,080835.866,4008.526,N,03300.410,E,1,12,1.0,0.0,M,0.0,M,,*68
$GPGSA,A,3,01,02,03,04,05,06,07,08,09,10,11,12,1.0,1.0,1.0*30
$GPRMC,080835.866,A,4008.526,N,03300.410,E,000.0,000.0,191124,000.0,W*72
$GPGGA,080835.916,4008.526,N,03300.410,E,1,12,1.0,0.0,M,0.0,M,,*6E
$GPGSA,A,3,01,02,03,04,05,06,07,08,09,10,11,12,1.0,1.0,1.0*30
$GPRMC,080835.916,A,4008.526,N,03300.410,E,055.1,270.0,191124,000.0,W*70
$GPGGA,080835.966,4008.526,N,03300.409,E,1,12,1.0,0.0,M,0.0,M,,*61
$GPGSA,A,3,01,02,03,04,05,06,07,08,09,10,11,12,1.0,1.0,1.0*30
$GPRMC,080835.966,A,4008.526,N,03300.409,E,055.1,000.0,191124,000.0,W*7A
$GPGGA,080836.016,4008.526,N,03300.409,E,1,12,1.0,0.0,M,0.0,M,,*6C
$GPGSA,A,3,01,02,03,04,05,06,07,08,09,10,11,12,1.0,1.0,1.0*30
$GPRMC,080836.016,A,4008.526,N,03300.409,E,000.0,000.0,191124,000.0,W*76
$GPGGA,080836.066,4008.526,N,03300.409,E,1,12,1.0,0.0,M,0.0,M,,*6B
$GPGSA,A,3,01,02,03,04,05,06,07,08,09,10,11,12,1.0,1.0,1.0*30
$GPRMC,080836.066,A,4008.526,N,03300.409,E,072.1,180.0,191124,000.0,W*7C
$GPGGA,080836.116,4008.525,N,03300.409,E,1,12,1.0,0.0,M,0.0,M,,*6E
$GPGSA,A,3,01,02,03,04,05,06,07,08,09,10,11,12,1.0,1.0,1.0*30
$GPRMC,080836.116,A,4008.525,N,03300.409,E,072.1,000.0,191124,000.0,W*70
$GPGGA,080836.166,4008.525,N,03300.409,E,1,12,1.0,0.0,M,0.0,M,,*69
$GPGSA,A,3,01,02,03,04,05,06,07,08,09,10,11,12,1.0,1.0,1.0*30
$GPRMC,080836.166,A,4008.525,N,03300.409,E,000.0,000.0,191124,000.0,W*73
$GPGGA,080836.216,4008.525,N,03300.409,E,1,12,1.0,0.0,M,0.0,M,,*6D
$GPGSA,A,3,01,02,03,04,05,06,07,08,09,10,11,12,1.0,1.0,1.0*30
$GPRMC,080836.216,A,4008.525,N,03300.409,E,000.0,000.0,191124,000.0,W*77
$GPGGA,080836.266,4008.525,N,03300.409,E,1,12,1.0,0.0,M,0.0,M,,*53
$GPGSA,A,3,01,02,03,04,05,06,07,08,09,10,11,12,1.0,1.0,1.0*88
$GPRMC,080836.266,A,4008.525,N,03300.409,E,000.0,000.0,191124,000.0,W*70
$GPGGA,080836.316,4008.525,N,03300.409,E,1,12,1.0,0.0,M,0.0,M,,*6C
$GPGSA,A,3,01,02,03,04,05,06,07,08,09,10,11,12,1.0,1.0,1.0*30
$GPRMC,080836.316,A,4008.525,N,03300.409,E,000.0,000.0,191124,000.0,W*76
$GPGGA,080836.366,4008.525,N,03300.409,E,1,12,1.0,0.0,M,0.0,M,,*6B
$GPGSA,A,3,01,02,03,04,05,06,07,08,09,10,11,12,1.0,1.0,1.0*30
$GPRMC,080836.366,A,4008.525,N,03300.409,E,000.0,000.0,191124,000.0,W*71
$GPGGA,080836.416,4008.525,N,03300.409,E,1,12,1.0,0.0,M,0.0,M,,*A2
$GPGSA,A,3,01,02,03,04,05,06,07,08,09,10,11,12,1.0,1.0,1.0*30
$GPRMC,080836.416,A,4008.525,N,03300.409,E,000.0,000.0,191124,000.0,W*71
$GPGGA,080836.466,4008.525,N,03300.409,E,1,12,1.0,0.0,M,0.0,M,,*6C
$GPGSA,A,3,01,02,03,04,05,06,07,08,09,10,11,12,1.0,1.0,1.0*30
$GPRMC,080836.466,A,4008.525,N,03300.409,E,000.0,000.0,191124,000.0,W*76
$GPGGA,080836.516,4008.525,N,03300.409,E,1,12,1.0,0.0,M,0.0,M,,*6A
$GPGSA,A,3,01,02,03,04,05,06,07,08,09,10,11,12,1.0,1.0,1.0*30
$GPRMC,080836.516,A,4008.525,N,03300.409,E,055.1,270.0,191124,000.0,W*74
$GPGGA,080836.566,4008.525,N,03300.408,E,1,12,1.0,0.0,M,0.0,M,,*6C
$GPGSA,A,3,01,02,03,04,05,06,07,08,09,10,11,12,1.0,1.0,1.0*30
$GPRMC,080836.566,A,4008.525,N,03300.408,E,055.1,000.0,191124,000.0,W*77
$GPGGA,080836.616,4008.525,N,03300.408,E,1,12,1.0,0.0,M,0.0,M,,*68
$GPGSA,A,3,01,02,03,04,05,06,07,08,09,10,11,12,1.0,1.0,1.0*30
$GPRMC,080836.616,A,4008.525,N,03300.408,E,000.0,000.0,191124,000.0,W*72
$GPGGA,080836.666,4008.525,N,03300.408,E,1,12,1.0,0.0,M,0.0,M,,*6F
$GPGSA,A,3,01,02,03,04,05,06,07,08,09,10,11,12,1.0,1.0,1.0*30
$GPRMC,080836.666,A,4008.525,N,03300.408,E,072.0,180.0,191124,000.0,W*79
$GPGGA,080836.716,4008.524,N,03300.408,E,1,12,1.0,0.0,M,0.0,M,,*68
$GPGSA,A,3,01,02,03,04,05,06,07,08,09,10,11,12,1.0,1.0,1.0*30
$GPRMC,080836.716,A,4008.524,N,03300.408,E,072.0,000.0,191124,000.0,W*77
$GPGGA,080836.766,4008.524,N,03300.408,E,1,12,1.0,0.0,M,0.0,M,,*6F
$GPGSA,A,3,01,02,03,04,05,06,07,08,09,10,11,12,1.0,1.0,1.0*30
$GPRMC,080836.766,A,4008.524,N,03300.408,E,000.0,000.0,191124,000.0,W*75
$GPGGA,080836.816,4008.524,N,03300.408,E,1,12,1.0,0.0,M,0.0,M,,*67
$GPGSA,A,3,01,02,03,04,05,06,07,08,09,10,11,12,1.0,1.0,1.0*30
$GPRMC,080836.816,A,4008.524,N,03300.408,E,000.0,000.0,191124,000.0,W*7D
$GPGGA,080836.866,4008.524,N,03300.408,E,1,12,1.0,0.0,M,0.0,M,,*60
$GPGSA,A,3,01,02,03,04,05,06,07,08,09,10,11,12,1.0,1.0,1.0*30
$GPRMC,080836.866,A,4008.524,N,03300.408,E,000.0,000.0,191124,000.0,W*7A
$GPGGA,080836.916,4008.524,N,03300.408,E,1,12,1.0,0.0,M,0.0,M,,*66
$GPGSA,A,3,01,02,03,04,05,06,07,08,09,10,11,12,1.0,1.0,1.0*30
$GPRMC,080836.916,A,4008.524,N,03300.408,E,000.0,000.0,191124,000.0,W*7C
$GPGGA,080836.966,4008.524,N,03300.408,E,1,12,1.0,0.0,M,0.0,M,,*61
$GPGSA,A,3,01,02,03,04,05,06,07,08,09,10,11,12,1.0,1.0,1.0*30
$GPRMC,080836.966,A,4008.524,N,03300.408,E,000.0,000.0,191124,000.0,W*7B
$GPGGA,080837.016,4008.524,N,03300.408,E,1,12,1.0,0.0,M,0.0,M,,*6E
$GPGSA,A,3,01,02,03,04,05,06,07,08,09,10,11,12,1.0,1.0,1.0*30
$GPRMC,080837.016,A,4008.524,N,03300.408,E,000.0,000.0,191124,000.0,W*74
$GPGGA,080837.066,4008.524,N,03300.408,E,1,12,1.0,0.0,M,0.0,M,,*69
$GPGSA,A,3,01,02,03,04,05,06,07,08,09,10,11,12,1.0,1.0,1.0*30
$GPRMC,080837.066,A,4008.524,N,03300.408,E,000.0,000.0,191124,000.0,W*73
$GPGGA,080837.116,4008.524,N,03300.408,E,1,12,1.0,0.0,M,0.0,M,,*6F
$GPGSA,A,3,01,02,03,04,05,06,07,08,09,10,11,12,1.0,1.0,1.0*30
$GPRMC,080837.116,A,4008.524,N,03300.408,E,055.1,270.0,191124,000.0,W*71
$GPGGA,080837.166,4008.524,N,03300.407,E,1,12,1.0,0.0,M,0.0,M,,*67
$GPGSA,A,3,01,02,03,04,05,06,07,08,09,10,11,12,1.0,1.0,1.0*30
$GPRMC,080837.166,A,4008.524,N,03300.407,E,055.1,000.0,191124,000.0,W*7C
$GPGGA,080837.216,4008.524,N,03300.407,E,1,12,1.0,0.0,M,0.0,M,,*63
$GPGSA,A,3,01,02,03,04,05,06,07,08,09,10,11,12,1.0,1.0,1.0*30
$GPRMC,080837.216,A,4008.524,N,03300.407,E,072.1,180.0,191124,000.0,W*74
$GPGGA,080837.266,4008.523,N,03300.407,E,1,12,1.0,0.0,M,0.0,M,,*B7
$GPGSA,A,3,01,02,03,04,05,06,07,08,09,10,11,12,1.0,1.0,1.0*30
$GPRMC,080837.266,A,4008.523,N,03300.407,E,072.1,000.0,191124,000.0,W*7D
$GPGGA,080837.316,4008.523,N,03300.407,E,1,12,1.0,0.0,M,0.0,M,,*65
$GPGSA,A,3,01,02,03,04,05,06,07,08,09,10,11,12,1.0,1.0,1.0*30
$GPRMC,080837.316,A,4008.523,N,03300.407,E,000.0,000.0,191124,000.0,W*7F
$GPGGA,080837.366,4008.523,N,03300.407,E,1,12,1.0,0.0,M,0.0,M,,*62
$GPGSA,A,3,01,02,03,04,05,06,07,08,09,10,11,12,1.0,1.0,1.0*30
$GPRMC,080837.366,A,4008.523,N,03300.407,E,000.0,000.0,191124,000.0,W*78
$GPGGA,080837.416,4008.523,N,03300.407,E,1,12,1.0,0.0,M,0.0,M,,*62
$GPGSA,A,3,01,02,03,04,05,06,07,08,09,10,11,12,1.0,1.0,1.0*30
$GPRMC,080837.416,A,4008.523,N,03300.407,E,000.0,000.0,191124,000.0,W*78
$GPGGA,080837.466,4008.523,N,03300.407,E,1,12,1.0,0.0,M,0.0,M,,*65
$GPGSA,A,3,01,02,03,04,05,06,07,08,09,10,11,12,1.0,1.0,1.0*30
$GPRMC,080837.466,A,4008.523,N,03300.407,E,000.0,000.0,191124,000.0,W*7F
$GPGGA,080837.516,4008.523,N,03300.407,E,1,12,1.0,0.0,M,0.0,M,,*E0
$GPGSA,A,3,01,02,03,04,05,06,07,08,09,10,11,12,1.0,1.0,1.0*30
$GPRMC,080837.516,A,4008.523,N,03300.407,E,000.0,000.0,191124,000.0,W*79
$GPGGA,080837.566,4008.523,N,03300.407,E,1,12,1.0,0.0,M,0.0,M,,*64
$GPGSA,A,3,01,02,03,04,05,06,07,08,09,10,11,12,1.0,1.0,1.0*30
$GPRMC,080837.566,A,4008.523,N,03300.407,E,000.0,000.0,191124,000.0,W*7E
$GPGGA,080837.616,4008.523,N,03300.407,E,1,12,1.0,0.0,M,0.0,M,,*60
$GPGSA,A,3,01,02,03,04,05,06,07,08,09,10,11,12,1.0,1.0,1.0*30
$GPRMC,080837.616,A,4008.523,N,03300.407,E,000.0,000.0,191124,000.0,W*7A
$GPGGA,080837.666,4008.523,N,03300.407,E,1,12,1.0,0.0,M,0.0,M,,*67
$GPGSA,A,3,01,02,03,04,05,06,07,08,09,10,11,12,1.0,1.0,1.0*30
$GPRMC,080837.666,A,4008.523,N,03300.407,E,000.0,000.0,191124,000.0,W*7D
$GPGGA,080837.716,4008.523,N,03300.407,E,1,12,1.0,0.0,M,0.0,M,,*61
$GPGSA,A,3,01,02,03,04,05,06,07,08,09,10,11,12,1.0,1.0,1.0*30
$GPRMC,080837.716,A,4008.523,N,03300.407,E,055.1,270.0,191124,000.0,W*D1
$GPGGA,080837.766,4008.523,N,03300.406,E,1,12,1.0,0.0,M,0.0,M,,*67
$GPGSA,A,3,01,02,03,04,05,06,07,08,09,10,11,12,1.0,1.0,1.0*30
$GPRMC,080837.766,A,4008.523,N,03300.406,E,055.1,000.0,191124,000.0,W*7C
$GPGGA,080837.816,4008.523,N,03300.406,E,1,12,1.0,0.0,M,0.0,M,,*6F
$GPGSA,A,3,01,02,03,04,05,06,07,08,09,10,11,12,1.0,1.0,1.0*30
$GPRMC,080837.816,A,4008.523,N,03300.406,E,072.1,180.0,191124,000.0,W*57
$GPGGA,080837.866,4008.522,N,03300.406,E,1,12,1.0,0.0,M,0.0,M,,*69
$GPGSA,A,3,01,02,03,04,05,06,07,08,09,10,11,12,1.0,1.0,1.0*30
$GPRMC,080837.866,A,4008.522,N,03300.406,E,072.1,000.0,191124,000.0,W*77
$GPGGA,080837.916,4008.522,N,03300.406,E,1,12,1.0,0.0,M,0.0,M,,*41
$GPGSA,A,3,01,02,03,04,05,06,07,08,09,10,11,12,1.0,1.0,1.0*30
$GPRMC,080837.916,A,4008.522,N,03300.406,E,000.0,000.0,191124,000.0,W*75
$GPGGA,080837.966,4008.522,N,03300.406,E,1,12,1.0,0.0,M,0.0,M,,*68
$GPGSA,A,3,01,02,03,04,05,06,07,08,09,10,11,12,1.0,1.0,1.0*30
$GPRMC,080837.966,A,4008.522,N,03300.406,E,000.0,000.0,191124,000.0,W*72
$GPGGA,080838.016,4008.522,N,03300.406,E,1,12,1.0,0.0,M,0.0,M,,*69
$GPGSA,A,3,01,02,03,04,05,06,07,08,09,10,11,12,1.0,1.0,1.0*BF
$GPRMC,080838.016,A,4008.522,N,03300.406,E,000.0,000.0,191124,000.0,W*73
$GPGGA,080838.066,4008.522,N,03300.406,E,1,12,1.0,0.0,M,0.0,M,,*6E
$GPGSA,A,3,01,02,03,04,05,06,07,08,09,10,11,12,1.0,1.0,1.0*30
$GPRMC,080838.066,A,4008.522,N,03300.406,E,000.0,000.0,191124,000.0,W*74
$GPGGA,080838.116,4008.522,N,03300.406,E,1,12,1.0,0.0,M,0.0,M,,*68
$GPGSA,A,3,01,02,03,04,05,06,07,08,09,10,11,12,1.0,1.0,1.0*30
$GPRMC,080838.116,A,4008.522,N,03300.406,E,000.0,000.0,191124,000.0,W*72
$GPGGA,080838.166,4008.522,N,03300.406,E,1,12,1.0,0.0,M,0.0,M,,*6F
$GPGSA,A,3,01,02,03,04,05,06,07,08,09,10,11,12,1.0,1.0,1.0*30
$GPRMC,080838.166,A,4008.522,N,03300.406,E,000.0,000.0,191124,000.0,W*75
$GPGGA,080838.216,4008.522,N,03300.406,E,1,12,1.0,0.0,M,0.0,M,,*6B
$GPGSA,A,3,01,02,03,04,05,06,07,08,09,10,11,12,1.0,1.0,1.0*30
$GPRMC,080838.216,A,4008.522,N,03300.406,E,000.0,000.0,191124,000.0,W*97
$GPGGA,080838.266,4008.522,N,03300.406,E,1,12,1.0,0.0,M,0.0,M,,*6C
$GPGSA,A,3,01,02,03,04,05,06,07,08,09,10,11,12,1.0,1.0,1.0*28
$GPRMC,080838.266,A,4008.522,N,03300.406,E,000.0,000.0,191124,000.0,W*76
$GPGGA,080838.316,4008.522,N,03300.406,E,1,12,1.0,0.0,M,0.0,M,,*2F
$GPGSA,A,3,01,02,03,04,05,06,07,08,09,10,11,12,1.0,1.0,1.0*30
$GPRMC,080838.316,A,4008.522,N,03300.406,E,055.1,270.0,191124,000.0,W*74
$GPGGA,080838.366,4008.522,N,03300.405,E,1,12,1.0,0.0,M,0.0,M,,*6E
$GPGSA,A,3,01,02,03,04,05,06,07,08,09,10,11,12,1.0,1.0,1.0*30
$GPRMC,080838.366,A,4008.522,N,03300.405,E,072.0,180.0,191124,000.0,W*78
$GPGGA,080838.416,4008.521,N,03300.405,E,1,12,1.0,0.0,M,0.0,M,,*6D
$GPGSA,A,3,01,02,03,04,05,06,07,08,09,10,11,12,1.0,1.0,1.0*30
$GPRMC,080838.416,A,4008.521,N,03300.405,E,072.0,000.0,191124,000.0,W*72
$GPGGA,080838.466,4008.521,N,03300.405,E,1,12,1.0,0.0,M,0.0,M,,*6A
$GPGSA,A,3,01,02,03,04,05,06,07,08,09,10,11,12,1.0,1.0,1.0*30
$GPRMC,080838.466,A,4008.521,N,03300.405,E,000.0,000.0,191124,000.0,W*70
$GPGGA,080838.516,4008.521,N,03300.405,E,1,12,1.0,0.0,M,0.0,M,,*94
$GPGSA,A,3,01,02,03,04,05,06,07,08,09,10,11,12,1.0,1.0,1.0*30
$GPRMC,080838.516,A,4008.521,N,03300.405,E,000.0,000.0,191124,000.0,W*76
$GPGGA,080838.566,4008.521,N,03300.405,E,1,12,1.0,0.0,M,0.0,M,,*6B
$GPGSA,A,3,01,02,03,04,05,06,07,08,09,10,11,12,1.0,1.0,1.0*30
$GPRMC,080838.566,A,4008.521,N,03300.405,E,000.0,000.0,191124,000.0,W*71
$GPGGA,080838.616,4008.521,N,03300.405,E,1,12,1.0,0.0,M,0.0,M,,*6F
$GPGSA,A,3,01,02,03,04,05,06,07,08,09,10,11,12,1.0,1.0,1.0*BE
$GPRMC,080838.616,A,4008.521,N,03300.405,E,000.0,000.0,191124,000.0,W*75
$GPGGA,080838.666,4008.521,N,03300.405,E,1,12,1.0,0.0,M,0.0,M,,*68
$GPGSA,A,3,01,02,03,04,05,06,07,08,09,10,11,12,1.0,1.0,1.0*30
$GPRMC,080838.666,A,4008.521,N,03300.405,E,000.0,000.0,191124,000.0,W*72
$GPGGA,080838.716,4008.521,N,03300.405,E,1,12,1.0,0.0,M,0.0,M,,*6E
$GPGSA,A,3,01,02,03,04,05,06,07,08,09,10,11,12,1.0,1.0,1.0*30
$GPRMC,080838.716,A,4008.521,N,03300.405,E,000.0,000.0,191124,000.0,W*74
$GPGGA,080838.766,4008.521,N,03300.405,E,1,12,1.0,0.0,M,0.0,M,,*69
$GPGSA,A,3,01,02,03,04,05,06,07,08,09,10,11,12,1.0,1.0,1.0*30
$GPRMC,080838.766,A,4008.521,N,03300.405,E,000.0,000.0,191124,000.0,W*73
$GPGGA,080838.816,4008.521,N,03300.405,E,1,12,1.0,0.0,M,0.0,M,,*61
$GPGSA,A,3,01,02,03,04,05,06,07,08,09,10,11,12,1.0,1.0,1.0*30
$GPRMC,080838.816,A,4008.521,N,03300.405,E,000.0,000.0,191124,000.0,W*7B
$GPGGA,080838.866,4008.521,N,03300.405,E,1,12,1.0,0.0,M,0.0,M,,*66
$GPGSA,A,3,01,02,03,04,05,06,07,08,09,10,11,12,1.0,1.0,1.0*30
$GPRMC,080838.866,A,4008.521,N,03300.405,E,000.0,000.0,191124,000.0,W*7C
$GPGGA,080838.916,4008.521,N,03300.405,E,1,12,1.0,0.0,M,0.0,M,,*60
$GPGSA,A,3,01,02,03,04,05,06,07,08,09,10,11,12,1.0,1.0,1.0*30
$GPRMC,080838.916,A,4008.521,N,03300.405,E,090.7,217.4,191124,000.0,W*74
$GPGGA,080838.966,4008.520,N,03300.404,E,1,12,1.0,0.0,M,0.0,M,,*67
$GPGSA,A,3,01,02,03,04,05,06,07,08,09,10,11,12,1.0,1.0,1.0*30
$GPRMC,080838.966,A,4008.520,N,03300.404,E,090.7,000.0,191124,000.0,W*73
$GPGGA,080839.016,4008.520,N,03300.404,E,1,12,1.0,0.0,M,0.0,M,,*68
$GPGSA,A,3,01,02,03,04,05,06,07,08,09,10,11,12,1.0,1.0,1.0*30
$GPRMC,080839.016,A,4008.520,N,03300.404,E,000.0,000.0,191124,000.0,W*72
$GPGGA,080839.066,4008.520,N,03300.404,E,1,12,1.0,0.0,M,0.0,M,,*6F
$GPGSA,A,3,01,02,03,04,05,06,07,08,09,10,11,12,1.0,1.0,1.0*30
$GPRMC,080839.066,A,4008.520,N,03300.404,E,000.0,000.0,191124,000.0,W*75
$GPGGA,080839.116,4008.520,N,03300.404,E,1,12,1.0,0.0,M,0.0,M,,*69
$GPGSA,A,3,01,02,03,04,05,06,07,08,09,10,11,12,1.0,1.0,1.0*30
$GPRMC,080839.116,A,4008.520,N,03300.404,E,000.0,000.0,191124,000.0,W*73
$GPGGA,080839.166,4008.520,N,03300.404,E,1,12,1.0,0.0,M,0.0,M,,*6E
$GPGSA,A,3,01,02,03,04,05,06,07,08,09,10,11,12,1.0,1.0,1.0*30
$GPRMC,080839.166,A,4008.520,N,03300.404,E,000.0,000.0,191124,000.0,W*74
$GPGGA,080839.216,4008.520,N,03300.404,E,1,12,1.0,0.0,M,0.0,M,,*6A
$GPGSA,A,3,01,02,03,04,05,06,07,08,09,10,11,12,1.0,1.0,1.0*30
$GPRMC,080839.216,A,4008.520,N,03300.404,E,000.0,000.0,191124,000.0,W*70
$GPGGA,080839.266,4008.520,N,03300.404,E,1,12,1.0,0.0,M,0.0,M,,*6D
$GPGSA,A,3,01,02,03,04,05,06,07,08,09,10,11,12,1.0,1.0,1.0*30
$GPRMC,080839.266,A,4008.520,N,03300.404,E,000.0,000.0,191124,000.0,W*77
$GPGGA,080839.316,4008.520,N,03300.404,E,1,12,1.0,0.0,M,0.0,M,,*FD
$GPGSA,A,3,01,02,03,04,05,06,07,08,09,10,11,12,1.0,1.0,1.0*AC
$GPRMC,080839.316,A,4008.520,N,03300.404,E,000.0,000.0,191124,000.0,W*71
$GPGGA,080839.366,4008.520,N,03300.404,E,1,12,1.0,0.0,M,0.0,M,,*6C
$GPGSA,A,3,01,02,03,04,05,06,07,08,09,10,11,12,1.0,1.0,1.0*87
$GPRMC,080839.366,A,4008.520,N,03300.404,E,000.0,000.0,191124,000.0,W*76
$GPGGA,080839.416,4008.520,N,03300.404,E,1,12,1.0,0.0,M,0.0,M,,*6C
$GPGSA,A,3,01,02,03,04,05,06,07,08,09,10,11,12,1.0,1.0,1.0*30
$GPRMC,080839.416,A,4008.520,N,03300.404,E,000.0,000.0,191124,000.0,W*76
$GPGGA,080839.466,4008.520,N,03300.404,E,1,12,1.0,0.0,M,0.0,M,,*6B
$GPGSA,A,3,01,02,03,04,05,06,07,08,09,10,11,12,1.0,1.0,1.0*12
$GPRMC,080839.466,A,4008.520,N,03300.404,E,000.0,000.0,191124,000.0,W*71
$GPGGA,080839.516,4008.520,N,03300.404,E,1,12,1.0,0.0,M,0.0,M,,*6D
$GPGSA,A,3,01,02,03,04,05,06,07,08,09,10,11,12,1.0,1.0,1.0*30
$GPRMC,080839.516,A,4008.520,N,03300.404,E,090.7,217.4,191124,000.0,W*79
$GPGGA,080839.566,4008.519,N,03300.403,E,1,12,1.0,0.0,M,0.0,M,,*67
$GPGSA,A,3,01,02,03,04,05,06,07,08,09,10,11,12,1.0,1.0,1.0*30
$GPRMC,080839.566,A,4008.519,N,03300.403,E,090.7,000.0,191124,000.0,W*2E
$GPGGA,080839.616,4008.519,N,03300.403,E,1,12,1.0,0.0,M,0.0,M,,*63
$GPGSA,A,3,01,02,03,04,05,06,07,08,09,10,11,12,1.0,1.0,1.0*30
$GPRMC,080839.616,A,4008.519,N,03300.403,E,000.0,000.0,191124,000.0,W*79
$GPGGA,080839.666,4008.519,N,03300.403,E,1,12,1.0,0.0,M,0.0,M,,*64
$GPGSA,A,3,01,02,03,04,05,06,07,08,09,10,11,12,1.0,1.0,1.0*30
$GPRMC,080839.666,A,4008.519,N,03300.403,E,000.0,000.0,191124,000.0,W*7E
$GPGGA,080839.716,4008.519,N,03300.403,E,1,12,1.0,0.0,M,0.0,M,,*62
$GPGSA,A,3,01,02,03,04,05,06,07,08,09,10,11,12,1.0,1.0,1.0*30
$GPRMC,080839.716,A,4008.519,N,03300.403,E,000.0,000.0,191124,000.0,W*BD
$GPGGA,080839.766,4008.519,N,03300.403,E,1,12,1.0,0.0,M,0.0,M,,*65
$GPGSA,A,3,01,02,03,04,05,06,07,08,09,10,11,12,1.0,1.0,1.0*30
$GPRMC,080839.766,A,4008.519,N,03300.403,E,000.0,000.0,191124,000.0,W*7F
$GPGGA,080839.816,4008.519,N,03300.403,E,1,12,1.0,0.0,M,0.0,M,,*6D
$GPGSA,A,3,01,02,03,04,05,06,07,08,09,10,11,12,1.0,1.0,1.0*30
$GPRMC,080839.816,A,4008.519,N,03300.403,E,000.0,000.0,191124,000.0,W*77
$GPGGA,080839.866,4008.519,N,03300.403,E,1,12,1.0,0.0,M,0.0,M,,*6A
$GPGSA,A,3,01,02,03,04,05,06,07,08,09,10,11,12,1.0,1.0,1.0*30
$GPRMC,080839.866,A,4008.519,N,03300.403,E,000.0,000.0,191124,000.0,W*70
$GPGGA,080839.916,4008.519,N,03300.403,E,1,12,1.0,0.0,M,0.0,M,,*6C
$GPGSA,A,3,01,02,03,04,05,06,07,08,09,10,11,12,1.0,1.0,1.0*30
$GPRMC,080839.916,A,4008.519,N,03300.403,E,000.0,000.0,191124,000.0,W*76
$GPGGA,080839.966,4008.519,N,03300.403,E,1,12,1.0,0.0,M,0.0,M,,*6B
$GPGSA,A,3,01,02,03,04,05,06,07,08,09,10,11,12,1.0,1.0,1.0*30
$GPRMC,080839.966,A,4008.519,N,03300.403,E,000.0,000.0,191124,000.0,W*71
$GPGGA,080840.016,4008.519,N,03300.403,E,1,12,1.0,0.0,M,0.0,M,,*6B
$GPGSA,A,3,01,02,03,04,05,06,07,08,09,10,11,12,1.0,1.0,1.0*30
$GPRMC,080840.016,A,4008.519,N,03300.403,E,000.0,000.0,191124,000.0,W*71
$GPGGA,080840.066,4008.519,N,03300.403,E,1,12,1.0,0.0,M,0.0,M,,*6C
$GPGSA,A,3,01,02,03,04,05,06,07,08,09,10,11,12,1.0,1.0,1.0*30
$GPRMC,080840.066,A,4008.519,N,03300.403,E,072.0,180.0,191124,000.0,W*7A
$GPGGA,080840.116,4008.518,N,03300.403,E,1,12,1.0,0.0,M,0.0,M,,*6B
$GPGSA,A,3,01,02,03,04,05,06,07,08,09,10,11,12,1.0,1.0,1.0*30
$GPRMC,080840.116,A,4008.518,N,03300.403,E,055.1,270.0,191124,000.0,W*75
$GPGGA,080840.166,4008.518,N,03300.402,E,1,12,1.0,0.0,M,0.0,M,,*6D
$GPGSA,A,3,01,02,03,04,05,06,07,08,09,10,11,12,1.0,1.0,1.0*30
$GPRMC,080840.166,A,4008.518,N,03300.402,E,055.1,000.0,191124,000.0,W*76
$GPGGA,080840.216,4008.518,N,03300.402,E,1,12,1.0,0.0,M,0.0,M,,*69
$GPGSA,A,3,01,02,03,04,05,06,07,08,09,10,11,12,1.0,1.0,1.0*30
$GPRMC,080840.216,A,4008.518,N,03300.402,E,000.0,000.0,191124,000.0,W*73
$GPGGA,080840.266,4008.518,N,03300.402,E,1,12,1.0,0.0,M,0.0,M,,*6E
$GPGSA,A,3,01,02,03,04,05,06,07,08,09,10,11,12,1.0,1.0,1.0*30
$GPRMC,080840.266,A,4008.518,N,03300.402,E,000.0,000.0,191124,000.0,W*74
$GPGGA,080840.316,4008.518,N,03300.402,E,1,12,1.0,0.0,M,0.0,M,,*68
$GPGSA,A,3,01,02,03,04,05,06,07,08,09,10,11,12,1.0,1.0,1.0*30
$GPRMC,080840.316,A,4008.518,N,03300.402,E,000.0,000.0,191124,000.0,W*72
$GPGGA,080840.366,4008.518,N,03300.402,E,1,12,1.0,0.0,M,0.0,M,,*6F
$GPGSA,A,3,01,02,03,04,05,06,07,08,09,10,11,12,1.0,1.0,1.0*30
$GPRMC,080840.366,A,4008.518,N,03300.402,E,000.0,000.0,191124,000.0,W*75
$GPGGA,080840.416,4008.518,N,03300.402,E,1,12,1.0,0.0,M,0.0,M,,*6F
$GPGSA,A,3,01,02,03,04,05,06,07,08,09,10,11,12,1.0,1.0,1.0*30
$GPRMC,080840.416,A,4008.518,N,03300.402,E,000.0,000.0,191124,000.0,W*75
$GPGGA,080840.466,4008.518,N,03300.402,E,1,12,1.0,0.0,M,0.0,M,,*68
$GPGSA,A,3,01,02,03,04,05,06,07,08,09,10,11,12,1.0,1.0,1.0*30
$GPRMC,080840.466,A,4008.518,N,03300.402,E,000.0,000.0,191124,000.0,W*72
$GPGGA,080840.516,4008.518,N,03300.402,E,1,12,1.0,0.0,M,0.0,M,,*6E
$GPGSA,A,3,01,02,03,04,05,06,07,08,09,10,11,12,1.0,1.0,1.0*30
$GPRMC,080840.516,A,4008.518,N,03300.402,E,000.0,000.0,191124,000.0,W*74
$GPGGA,080840.566,4008.518,N,03300.402,E,1,12,1.0,0.0,M,0.0,M,,*69
$GPGSA,A,3,01,02,03,04,05,06,07,08,09,10,11,12,1.0,1.0,1.0*30
$GPRMC,080840.566,A,4008.518,N,03300.402,E,000.0,000.0,191124,000.0,W*73
$GPGGA,080840.616,4008.518,N,03300.402,E,1,12,1.0,0.0,M,0.0,M,,*6D
$GPGSA,A,3,01,02,03,04,05,06,07,08,09,10,11,12,1.0,1.0,1.0*30
$GPRMC,080840.616,A,4008.518,N,03300.402,E,000.0,000.0,191124,000.0,W*77
$GPGGA,080840.666,4008.518,N,03300.402,E,1,12,1.0,0.0,M,0.0,M,,*6A
$GPGSA,A,3,01,02,03,04,05,06,07,08,09,10,11,12,1.0,1.0,1.0*30
$GPRMC,080840.666,A,4008.518,N,03300.402,E,072.1,180.0,191124,000.0,W*7D
$GPGGA,080840.716,4008.517,N,03300.402,E,1,12,1.0,0.0,M,0.0,M,,*63
$GPGSA,A,3,01,02,03,04,05,06,07,08,09,10,11,12,1.0,1.0,1.0*30
$GPRMC,080840.716,A,4008.517,N,03300.402,E,055.1,270.0,191124,000.0,W*7D
$GPGGA,080840.766,4008.517,N,03300.401,E,1,12,1.0,0.0,M,0.0,M,,*67
$GPGSA,A,3,01,02,03,04,05,06,07,08,09,10,11,12,1.0,1.0,1.0*30
$GPRMC,080840.766,A,4008.517,N,03300.401,E,055.1,000.0,191124,000.0,W*7C
$GPGGA,080840.816,4008.517,N,03300.401,E,1,12,1.0,0.0,M,0.0,M,,*6F
$GPGSA,A,3,01,02,03,04,05,06,07,08,09,10,11,12,1.0,1.0,1.0*EE
$GPRMC,080840.816,A,4008.517,N,03300.401,E,000.0,000.0,191124,000.0,W*75
$GPGGA,080840.866,4008.517,N,03300.401,E,1,12,1.0,0.0,M,0.0,M,,*68
$GPGSA,A,3,01,02,03,04,05,06,07,08,09,10,11,12,1.0,1.0,1.0*30
$GPRMC,080840.866,A,4008.517,N,03300.401,E,000.0,000.0,191124,000.0,W*72
$GPGGA,080840.916,4008.517,N,03300.401,E,1,12,1.0,0.0,M,0.0,M,,*6E
$GPGSA,A,3,01,02,03,04,05,06,07,08,09,10,11,12,1.0,1.0,1.0*30
$GPRMC,080840.916,A,4008.517,N,03300.401,E,000.0,000.0,191124,000.0,W*74
$GPGGA,080840.966,4008.517,N,03300.401,E,1,12,1.0,0.0,M,0.0,M,,*69
$GPGSA,A,3,01,02,03,04,05,06,07,08,09,10,11,12,1.0,1.0,1.0*30
$GPRMC,080840.966,A,4008.517,N,03300.401,E,000.0,000.0,191124,000.0,W*73
$GPGGA,080841.016,4008.517,N,03300.401,E,1,12,1.0,0.0,M,0.0,M,,*66
$GPGSA,A,3,01,02,03,04,05,06,07,08,09,10,11,12,1.0,1.0,1.0*30
$GPRMC,080841.016,A,4008.517,N,03300.401,E,000.0,000.0,191124,000.0,W*7C
$GPGGA,080841.066,4008.517,N,03300.401,E,1,12,1.0,0.0,M,0.0,M,,*44
$GPGSA,A,3,01,02,03,04,05,06,07,08,09,10,11,12,1.0,1.0,1.0*30
$GPRMC,080841.066,A,4008.517,N,03300.401,E,000.0,000.0,191124,000.0,W*7B
$GPGGA,080841.116,4008.517,N,03300.401,E,1,12,1.0,0.0,M,0.0,M,,*67
$GPGSA,A,3,01,02,03,04,05,06,07,08,09,10,11,12,1.0,1.0,1.0*30
$GPRMC,080841.116,A,4008.517,N,03300.401,E,000.0,000.0,191124,000.0,W*7D
$GPGGA,080841.166,4008.517,N,03300.401,E,1,12,1.0,0.0,M,0.0,M,,*60
$GPGSA,A,3,01,02,03,04,05,06,07,08,09,10,11,12,1.0,1.0,1.0*30
$GPRMC,080841.166,A,4008.517,N,03300.401,E,000.0,000.0,191124,000.0,W*7A
$GPGGA,080841.216,4008.517,N,03300.401,E,1,12,1.0,0.0,M,0.0,M,,*64
$GPGSA,A,3,01,02,03,04,05,06,07,08,09,10,11,12,1.0,1.0,1.0*30
$GPRMC,080841.216,A,4008.517,N,03300.401,E,072.1,180.0,191124,000.0,W*73
$GPGGA,080841.266,4008.516,N,03300.401,E,1,12,1.0,0.0,M,0.0,M,,*62
$GPGSA,A,3,01,02,03,04,05,06,07,08,09,10,11,12,1.0,1.0,1.0*30
$GPRMC,080841.266,A,4008.516,N,03300.401,E,072.1,000.0,191124,000.0,W*7C
$GPGGA,080841.316,4008.516,N,03300.401,E,1,12,1.0,0.0,M,0.0,M,,*64
$GPGSA,A,3,01,02,03,04,05,06,07,08,09,10,11,12,1.0,1.0,1.0*30
$GPRMC,080841.316,A,4008.516,N,03300.401,E,055.1,270.0,191124,000.0,W*FD
$GPGGA,080841.366,4008.516,N,03300.400,E,1,12,1.0,0.0,M,0.0,M,,*62
$GPGSA,A,3,01,02,03,04,05,06,07,08,09,10,11,12,1.0,1.0,1.0*30
$GPRMC,080841.366,A,4008.516,N,03300.400,E,055.1,000.0,191124,000.0,W*79
$GPGGA,080841.416,4008.516,N,03300.400,E,1,12,1.0,0.0,M,0.0,M,,*62
$GPGSA,A,3,01,02,03,04,05,06,07,08,09,10,11,12,1.0,1.0,1.0*30
$GPRMC,080841.416,A,4008.516,N,03300.400,E,000.0,000.0,191124,000.0,W*78
$GPGGA,080841.466,4008.516,N,03300.400,E,1,12,1.0,0.0,M,0.0,M,,*65
$GPGSA,A,3,01,02,03,04,05,06,07,08,09,10,11,12,1.0,1.0,1.0*30
$GPRMC,080841.466,A,4008.516,N,03300.400,E,000.0,000.0,191124,000.0,W*7F
$GPGGA,080841.516,4008.516,N,03300.400,E,1,12,1.0,0.0,M,0.0,M,,*C6
$GPGSA,A,3,01,02,03,04,05,06,07,08,09,10,11,12,1.0,1.0,1.0*30
$GPRMC,080841.516,A,4008.516,N,03300.400,E,000.0,000.0,191124,000.0,W*79
$GPGGA,080841.566,4008.516,N,03300.400,E,1,12,1.0,0.0,M,0.0,M,,*64
$GPGSA,A,3,01,02,03,04,05,06,07,08,09,10,11,12,1.0,1.0,1.0*30
$GPRMC,080841.566,A,4008.516,N,03300.400,E,000.0,000.0,191124,000.0,W*7E
$GPGGA,080841.616,4008.516,N,03300.400,E,1,12,1.0,0.0,M,0.0,M,,*60
$GPGSA,A,3,01,02,03,04,05,06,07,08,09,10,11,12,1.0,1.0,1.0*30
$GPRMC,080841.616,A,4008.516,N,03300.400,E,000.0,000.0,191124,000.0,W*7A
$GPGGA,080841.666,4008.516,N,03300.400,E,1,12,1.0,0.0,M,0.0,M,,*67
$GPGSA,A,3,01,02,03,04,05,06,07,08,09,10,11,12,1.0,1.0,1.0*30
$GPRMC,080841.666,A,4008.516,N,03300.400,E,000.0,000.0,191124,000.0,W*7D
$GPGGA,080841.716,4008.516,N,03300.400,E,1,12,1.0,0.0,M,0.0,M,,*61
$GPGSA,A,3,01,02,03,04,05,06,07,08,09,10,11,12,1.0,1.0,1.0*30
$GPRMC,080841.716,A,4008.516,N,03300.400,E,000.0,000.0,191124,000.0,W*7B
$GPGGA,080841.766,4008.516,N,03300.400,E,1,12,1.0,0.0,M,0.0,M,,*B0
$GPGSA,A,3,01,02,03,04,05,06,07,08,09,10,11,12,1.0,1.0,1.0*30
$GPRMC,080841.766,A,4008.516,N,03300.400,E,000.0,000.0,191124,000.0,W*7C
$GPGGA,080841.816,4008.516,N,03300.400,E,1,12,1.0,0.0,M,0.0,M,,*6E
$GPGSA,A,3,01,02,03,04,05,06,07,08,09,10,11,12,1.0,1.0,1.0*8C
$GPRMC,080841.816,A,4008.516,N,03300.400,E,072.0,180.0,191124,000.0,W*78
$GPGGA,080841.866,4008.515,N,03300.400,E,1,12,1.0,0.0,M,0.0,M,,*6A
$GPGSA,A,3,01,02,03,04,05,06,07,08,09,10,11,12,1.0,1.0,1.0*30
$GPRMC,080841.866,A,4008.515,N,03300.400,E,072.0,000.0,191124,000.0,W*75
$GPGGA,080841.916,4008.515,N,03300.400,E,1,12,1.0,0.0,M,0.0,M,,*6C
$GPGSA,A,3,01,02,03,04,05,06,07,08,09,10,11,12,1.0,1.0,1.0*30
$GPRMC,080841.916,A,4008.515,N,03300.400,E,055.1,270.0,191124,000.0,W*72
$GPGGA,080841.966,4008.515,N,03300.399,E,1,12,1.0,0.0,M,0.0,M,,*6C
$GPGSA,A,3,01,02,03,04,05,06,07,08,09,10,11,12,1.0,1.0,1.0*5A
$GPRMC,080841.966,A,4008.515,N,03300.399,E,055.1,000.0,191124,000.0,W*77
$GPGGA,080842.016,4008.515,N,03300.399,E,1,12,1.0,0.0,M,0.0,M,,*61
$GPGSA,A,3,01,02,03,04,05,06,07,08,09,10,11,12,1.0,1.0,1.0*52
$GPRMC,080842.016,A,4008.515,N,03300.399,E,000.0,000.0,191124,000.0,W*7B
$GPGGA,080842.066,4008.515,N,03300.399,E,1,12,1.0,0.0,M,0.0,M,,*66
$GPGSA,A,3,01,02,03,04,05,06,07,08,09,10,11,12,1.0,1.0,1.0*30
$GPRMC,080842.066,A,4008.515,N,03300.399,E,000.0,000.0,191124,000.0,W*7C
$GPGGA,080842.116,4008.515,N,03300.399,E,1,12,1.0,0.0,M,0.0,M,,*60
$GPGSA,A,3,01,02,03,04,05,06,07,08,09,10,11,12,1.0,1.0,1.0*30
$GPRMC,080842.116,A,4008.515,N,03300.399,E,000.0,000.0,191124,000.0,W*7A
$GPGGA,080842.166,4008.515,N,03300.399,E,1,12,1.0,0.0,M,0.0,M,,*67
$GPGSA,A,3,01,02,03,04,05,06,07,08,09,10,11,12,1.0,1.0,1.0*30
$GPRMC,080842.166,A,4008.515,N,03300.399,E,000.0,000.0,191124,000.0,W*7D
$GPGGA,080842.216,4008.515,N,03300.399,E,1,12,1.0,0.0,M,0.0,M,,*63
$GPGSA,A,3,01,02,03,04,05,06,07,08,09,10,11,12,1.0,1.0,1.0*30
$GPRMC,080842.216,A,4008.515,N,03300.399,E,000.0,000.0,191124,000.0,W*79
$GPGGA,080842.266,4008.515,N,03300.399,E,1,12,1.0,0.0,M,0.0,M,,*64
$GPGSA,A,3,01,02,03,04,05,06,07,08,09,10,11,12,1.0,1.0,1.0*30
$GPRMC,080842.266,A,4008.515,N,03300.399,E,000.0,000.0,191124,000.0,W*7E
$GPGGA,080842.316,4008.515,N,03300.399,E,1,12,1.0,0.0,M,0.0,M,,*62
$GPGSA,A,3,01,02,03,04,05,06,07,08,09,10,11,12,1.0,1.0,1.0*30
$GPRMC,080842.316,A,4008.515,N,03300.399,E,000.0,000.0,191124,000.0,W*78
$GPGGA,080842.366,4008.515,N,03300.399,E,1,12,1.0,0.0,M,0.0,M,,*65
$GPGSA,A,3,01,02,03,04,05,06,07,08,09,10,11,12,1.0,1.0,1.0*30
$GPRMC,080842.366,A,4008.515,N,03300.399,E,072.1,180.0,191124,000.0,W*72
$GPGGA,080842.416,4008.514,N,03300.399,E,1,12,1.0,0.0,M,0.0,M,,*64
$GPGSA,A,3,01,02,03,04,05,06,07,08,09,10,11,12,1.0,1.0,1.0*30
$GPRMC,080842.416,A,4008.514,N,03300.399,E,072.1,000.0,191124,000.0,W*7A
$GPGGA,080842.466,4008.514,N,03300.399,E,1,12,1.0,0.0,M,0.0,M,,*63
$GPGSA,A,3,01,02,03,04,05,06,07,08,09,10,11,12,1.0,1.0,1.0*30
$GPRMC,080842.466,A,4008.514,N,03300.399,E,000.0,000.0,191124,000.0,W*79
$GPGGA,080842.516,4008.514,N,03300.399,E,1,12,1.0,0.0,M,0.0,M,,*65
$GPGSA,A,3,01,02,03,04,05,06,07,08,09,10,11,12,1.0,1.0,1.0*30
$GPRMC,080842.516,A,4008.514,N,03300.399,E,055.1,270.0,191124,000.0,W*7B
$GPGGA,080842.566,4008.514,N,03300.398,E,1,12,1.0,0.0,M,0.0,M,,*63
$GPGSA,A,3,01,02,03,04,05,06,07,08,09,10,11,12,1.0,1.0,1.0*7C
$GPRMC,080842.566,A,4008.514,N,03300.398,E,055.1,000.0,191124,000.0,W*78
$GPGGA,080842.616,4008.514,N,03300.398,E,1,12,1.0,0.0,M,0.0,M,,*67
$GPGSA,A,3,01,02,03,04,05,06,07,08,09,10,11,12,1.0,1.0,1.0*30
$GPRMC,080842.616,A,4008.514,N,03300.398,E,000.0,000.0,191124,000.0,W*7D
$GPGGA,080842.666,4008.514,N,03300.398,E,1,12,1.0,0.0,M,0.0,M,,*60
$GPGSA,A,3,01,02,03,04,05,06,07,08,09,10,11,12,1.0,1.0,1.0*30
$GPRMC,080842.666,A,4008.514,N,03300.398,E,000.0,000.0,191124,000.0,W*7A
$GPGGA,080842.716,4008.514,N,03300.398,E,1,12,1.0,0.0,M,0.0,M,,*66
$GPGSA,A,3,01,02,03,04,05,06,07,08,09,10,11,12,1.0,1.0,1.0*30
$GPRMC,080842.716,A,4008.514,N,03300.398,E,000.0,000.0,191124,000.0,W*7C
$GPGGA,080842.766,4008.514,N,03300.398,E,1,12,1.0,0.0,M,0.0,M,,*61
$GPGSA,A,3,01,02,03,04,05,06,07,08,09,10,11,12,1.0,1.0,1.0*30
$GPRMC,080842.766,A,4008.514,N,03300.398,E,000.0,000.0,191124,000.0,W*7B
$GPGGA,080842.816,4008.514,N,03300.398,E,1,12,1.0,0.0,M,0.0,M,,*69
$GPGSA,A,3,01,02,03,04,05,06,07,08,09,10,11,12,1.0,1.0,1.0*30
$GPRMC,080842.816,A,4008.514,N,03300.398,E,000.0,000.0,191124,000.0,W*73
$GPGGA,080842.866,4008.514,N,03300.398,E,1,12,1.0,0.0,M,0.0,M,,*6E
$GPGSA,A,3,01,02,03,04,05,06,07,08,09,10,11,12,1.0,1.0,1.0*30
$GPRMC,080842.866,A,4008.514,N,03300.398,E,000.0,000.0,191124,000.0,W*F8
$GPGGA,080842.916,4008.514,N,03300.398,E,1,12,1.0,0.0,M,0.0,M,,*68
$GPGSA,A,3,01,02,03,04,05,06,07,08,09,10,11,12,1.0,1.0,1.0*30
$GPRMC,080842.916,A,4008.514,N,03300.398,E,000.0,000.0,191124,000.0,W*72
$GPGGA,080842.966,4008.514,N,03300.398,E,1,12,1.0,0.0,M,0.0,M,,*6F
$GPGSA,A,3,01,02,03,04,05,06,07,08,09,10,11,12,1.0,1.0,1.0*30
$GPRMC,080842.966,A,4008.514,N,03300.398,E,072.1,180.0,191124,000.0,W*78
$GPGGA,080843.016,4008.513,N,03300.398,E,1,12,1.0,0.0,M,0.0,M,,*67
$GPGSA,A,3,01,02,03,04,05,06,07,08,09,10,11,12,1.0,1.0,1.0*30
$GPRMC,080843.016,A,4008.513,N,03300.398,E,072.1,000.0,191124,000.0,W*79
$GPGGA,080843.066,4008.513,N,03300.398,E,1,12,1.0,0.0,M,0.0,M,,*60
$GPGSA,A,3,01,02,03,04,05,06,07,08,09,10,11,12,1.0,1.0,1.0*30
$GPRMC,080843.066,A,4008.513,N,03300.398,E,000.0,000.0,191124,000.0,W*7A
$GPGGA,080843.116,4008.513,N,03300.398,E,1,12,1.0,0.0,M,0.0,M,,*66
$GPGSA,A,3,01,02,03,04,05,06,07,08,09,10,11,12,1.0,1.0,1.0*30
$GPRMC,080843.116,A,4008.513,N,03300.398,E,055.1,270.0,191124,000.0,W*78
$GPGGA,080843.166,4008.513,N,03300.397,E,1,12,1.0,0.0,M,0.0,M,,*6E
$GPGSA,A,3,01,02,03,04,05,06,07,08,09,10,11,12,1.0,1.0,1.0*30
$GPRMC,080843.166,A,4008.513,N,03300.397,E,055.1,000.0,191124,000.0,W*75
$GPGGA,080843.216,4008.513,N,03300.397,E,1,12,1.0,0.0,M,0.0,M,,*6A
$GPGSA,A,3,01,02,03,04,05,06,07,08,09,10,11,12,1.0,1.0,1.0*30
$GPRMC,080843.216,A,4008.513,N,03300.397,E,000.0,000.0,191124,000.0,W*70
$GPGGA,080843.266,4008.513,N,03300.397,E,1,12,1.0,0.0,M,0.0,M,,*6D
$GPGSA,A,3,01,02,03,04,05,06,07,08,09,10,11,12,1.0,1.0,1.0*30
$GPRMC,080843.266,A,4008.513,N,03300.397,E,000.0,000.0,191124,000.0,W*77
$GPGGA,080843.316,4008.513,N,03300.397,E,1,12,1.0,0.0,M,0.0,M,,*6B
$GPGSA,A,3,01,02,03,04,05,06,07,08,09,10,11,12,1.0,1.0,1.0*30
$GPRMC,080843.316,A,4008.513,N,03300.397,E,000.0,000.0,191124,000.0,W*71
$GPGGA,080843.366,4008.513,N,03300.397,E,1,12,1.0,0.0,M,0.0,M,,*6C
$GPGSA,A,3,01,02,03,04,05,06,07,08,09,10,11,12,1.0,1.0,1.0*30
$GPRMC,080843.366,A,4008.513,N,03300.397,E,000.0,000.0,191124,000.0,W*76
$GPGGA,080843.416,4008.513,N,03300.397,E,1,12,1.0,0.0,M,0.0,M,,*6C
$GPGSA,A,3,01,02,03,04,05,06,07,08,09,10,11,12,1.0,1.0,1.0*30
$GPRMC,080843.416,A,4008.513,N,03300.397,E,000.0,000.0,191124,000.0,W*79
$GPGGA,080843.466,4008.513,N,03300.397,E,1,12,1.0,0.0,M,0.0,M,,*6B
$GPGSA,A,3,01,02,03,04,05,06,07,08,09,10,11,12,1.0,1.0,1.0*30
$GPRMC,080843.466,A,4008.513,N,03300.397,E,000.0,000.0,191124,000.0,W*88
$GPGGA,080843.516,4008.513,N,03300.397,E,1,12,1.0,0.0,M,0.0,M,,*6D
$GPGSA,A,3,01,02,03,04,05,06,07,08,09,10,11,12,1.0,1.0,1.0*30
$GPRMC,080843.516,A,4008.513,N,03300.397,E,072.0,180.0,191124,000.0,W*7B
$GPGGA,080843.566,4008.512,N,03300.397,E,1,12,1.0,0.0,M,0.0,M,,*6B
$GPGSA,A,3,01,02,03,04,05,06,07,08,09,10,11,12,1.0,1.0,1.0*30
$GPRMC,080843.566,A,4008.512,N,03300.397,E,072.0,000.0,191124,000.0,W*74
$GPGGA,080843.616,4008.512,N,03300.397,E,1,12,1.0,0.0,M,0.0,M,,*6F
$GPGSA,A,3,01,02,03,04,05,06,07,08,09,10,11,12,1.0,1.0,1.0*30
$GPRMC,080843.616,A,4008.512,N,03300.397,E,000.0,000.0,191124,000.0,W*75
$GPGGA,080843.666,4008.512,N,03300.397,E,1,12,1.0,0.0,M,0.0,M,,*68
$GPGSA,A,3,01,02,03,04,05,06,07,08,09,10,11,12,1.0,1.0,1.0*30
$GPRMC,080843.666,A,4008.512,N,03300.397,E,000.0,000.0,191124,000.0,W*72
$GPGGA,080843.716,4008.512,N,03300.397,E,1,12,1.0,0.0,M,0.0,M,,*6E
$GPGSA,A,3,01,02,03,04,05,06,07,08,09,10,11,12,1.0,1.0,1.0*30
$GPRMC,080843.716,A,4008.512,N,03300.397,E,055.1,270.0,191124,000.0,W*70
$GPGGA,080843.766,4008.512,N,03300.396,E,1,12,1.0,0.0,M,0.0,M,,*68
$GPGSA,A,3,01,02,03,04,05,06,07,08,09,10,11,12,1.0,1.0,1.0*30
$GPRMC,080843.766,A,4008.512,N,03300.396,E,055.1,000.0,191124,000.0,W*73
$GPGGA,080843.816,4008.512,N,03300.396,E,1,12,1.0,0.0,M,0.0,M,,*60
$GPGSA,A,3,01,02,03,04,05,06,07,08,09,10,11,12,1.0,1.0,1.0*30
$GPRMC,080843.816,A,4008.512,N,03300.396,E,000.0,000.0,191124,000.0,W*7A
$GPGGA,080843.866,4008.512,N,03300.396,E,1,12,1.0,0.0,M,0.0,M,,*67
$GPGSA,A,3,01,02,03,04,05,06,07,08,09,10,11,12,1.0,1.0,1.0*30
$GPRMC,080843.866,A,4008.512,N,03300.396,E,000.0,000.0,191124,000.0,W*7D
$GPGGA,080843.916,4008.512,N,03300.396,E,1,12,1.0,0.0,M,0.0,M,,*EC
$GPGSA,A,3,01,02,03,04,05,06,07,08,09,10,11,12,1.0,1.0,1.0*30
$GPRMC,080843.916,A,4008.512,N,03300.396,E,000.0,000.0,191124,000.0,W*7B
$GPGGA,080843.966,4008.512,N,03300.396,E,1,12,1.0,0.0,M,0.0,M,,*66
$GPGSA,A,3,01,02,03,04,05,06,07,08,09,10,11,12,1.0,1.0,1.0*85
$GPRMC,080843.966,A,4008.512,N,03300.396,E,000.0,000.0,191124,000.0,W*7C
$GPGGA,080844.016,4008.512,N,03300.396,E,1,12,1.0,0.0,M,0.0,M,,*6F
$GPGSA,A,3,01,02,03,04,05,06,07,08,09,10,11,12,1.0,1.0,1.0*30
$GPRMC,080844.016,A,4008.512,N,03300.396,E,000.0,000.0,191124,000.0,W*75
$GPGGA,080844.066,4008.512,N,03300.396,E,1,12,1.0,0.0,M,0.0,M,,*68
$GPGSA,A,3,01,02,03,04,05,06,07,08,09,10,11,12,1.0,1.0,1.0*30
$GPRMC,080844.066,A,4008.512,N,03300.396,E,000.0,000.0,191124,000.0,W*72
$GPGGA,080844.116,4008.512,N,03300.396,E,1,12,1.0,0.0,M,0.0,M,,*6E
$GPGSA,A,3,01,02,03,04,05,06,07,08,09,10,11,12,1.0,1.0,1.0*30
$GPRMC,080844.116,A,4008.512,N,03300.396,E,072.1,180.0,191124,000.0,W*79
$GPGGA,080844.166,4008.511,N,03300.396,E,1,12,1.0,0.0,M,0.0,M,,*6A
$GPGSA,A,3,01,02,03,04,05,06,07,08,09,10,11,12,1.0,1.0,1.0*30
$GPRMC,080844.166,A,4008.511,N,03300.396,E,072.1,000.0,191124,000.0,W*74
$GPGGA,080844.216,4008.511,N,03300.396,E,1,12,1.0,0.0,M,0.0,M,,*6E
$GPGSA,A,3,01,02,03,04,05,06,07,08,09,10,11,12,1.0,1.0,1.0*4B
$GPRMC,080844.216,A,4008.511,N,03300.396,E,000.0,000.0,191124,000.0,W*74
$GPGGA,080844.266,4008.511,N,03300.396,E,1,12,1.0,0.0,M,0.0,M,,*69
$GPGSA,A,3,01,02,03,04,05,06,07,08,09,10,11,12,1.0,1.0,1.0*30
$GPRMC,080844.266,A,4008.511,N,03300.396,E,000.0,000.0,191124,000.0,W*73
$GPGGA,080844.316,4008.511,N,03300.396,E,1,12,1.0,0.0,M,0.0,M,,*6F
$GPGSA,A,3,01,02,03,04,05,06,07,08,09,10,11,12,1.0,1.0,1.0*30
$GPRMC,080844.316,A,4008.511,N,03300.396,E,055.1,270.0,191124,000.0,W*71
$GPGGA,080844.366,4008.511,N,03300.395,E,1,12,1.0,0.0,M,0.0,M,,*6B
$GPGSA,A,3,01,02,03,04,05,06,07,08,09,10,11,12,1.0,1.0,1.0*30
$GPRMC,080844.366,A,4008.511,N,03300.395,E,055.1,000.0,191124,000.0,W*70
$GPGGA,080844.416,4008.511,N,03300.395,E,1,12,1.0,0.0,M,0.0,M,,*6B
$GPGSA,A,3,01,02,03,04,05,06,07,08,09,10,11,12,1.0,1.0,1.0*30
$GPRMC,080844.416,A,4008.511,N,03300.395,E,000.0,000.0,191124,000.0,W*71
$GPGGA,080844.466,4008.511,N,03300.395,E,1,12,1.0,0.0,M,0.0,M,,*6C
$GPGSA,A,3,01,02,03,04,05,06,07,08,09,10,11,12,1.0,1.0,1.0*30
$GPRMC,080844.466,A,4008.511,N,03300.395,E,000.0,000.0,191124,000.0,W*76
$GPGGA,080844.516,4008.511,N,03300.395,E,1,12,1.0,0.0,M,0.0,M,,*6A
$GPGSA,A,3,01,02,03,04,05,06,07,08,09,10,11,12,1.0,1.0,1.0*30
$GPRMC,080844.516,A,4008.511,N,03300.395,E,000.0,000.0,191124,000.0,W*70
$GPGGA,080844.566,4008.511,N,03300.395,E,1,12,1.0,0.0,M,0.0,M,,*6D
$GPGSA,A,3,01,02,03,04,05,06,07,08,09,10,11,12,1.0,1.0,1.0*30
$GPRMC,080844.566,A,4008.511,N,03300.395,E,000.0,000.0,191124,000.0,W*77
$GPGGA,080844.616,4008.511,N,03300.395,E,1,12,1.0,0.0,M,0.0,M,,*69
$GPGSA,A,3,01,02,03,04,05,06,07,08,09,10,11,12,1.0,1.0,1.0*30
$GPRMC,080844.616,A,4008.511,N,03300.395,E,000.0,000.0,191124,000.0,W*73
$GPGGA,080844.666,4008.511,N,03300.395,E,1,12,1.0,0.0,M,0.0,M,,*6E
$GPGSA,A,3,01,02,03,04,05,06,07,08,09,10,11,12,1.0,1.0,1.0*30
$GPRMC,080844.666,A,4008.511,N,03300.395,E,072.1,180.0,191124,000.0,W*79
$GPGGA,080844.716,4008.510,N,03300.395,E,1,12,1.0,0.0,M,0.0,M,,*69
$GPGSA,A,3,01,02,03,04,05,06,07,08,09,10,11,12,1.0,1.0,1.0*30
$GPRMC,080844.716,A,4008.510,N,03300.395,E,072.1,000.0,191124,000.0,W*77
$GPGGA,080844.766,4008.510,N,03300.395,E,1,12,1.0,0.0,M,0.0,M,,*6E
$GPGSA,A,3,01,02,03,04,05,06,07,08,09,10,11,12,1.0,1.0,1.0*30
$GPRMC,080844.766,A,4008.510,N,03300.395,E,000.0,000.0,191124,000.0,W*74
$GPGGA,080844.816,4008.510,N,03300.395,E,1,12,1.0,0.0,M,0.0,M,,*66
$GPGSA,A,3,01,02,03,04,05,06,07,08,09,10,11,12,1.0,1.0,1.0*30
$GPRMC,080844.816,A,4008.510,N,03300.395,E,000.0,000.0,191124,000.0,W*7C
$GPGGA,080844.866,4008.510,N,03300.395,E,1,12,1.0,0.0,M,0.0,M,,*61
$GPGSA,A,3,01,02,03,04,05,06,07,08,09,10,11,12,1.0,1.0,1.0*30
$GPRMC,080844.866,A,4008.510,N,03300.395,E,000.0,000.0,191124,000.0,W*7B
$GPGGA,080844.916,4008.510,N,03300.395,E,1,12,1.0,0.0,M,0.0,M,,*67
$GPGSA,A,3,01,02,03,04,05,06,07,08,09,10,11,12,1.0,1.0,1.0*30
$GPRMC,080844.916,A,4008.510,N,03300.395,E,055.1,270.0,191124,000.0,W*79
$GPGGA,080844.966,4008.510,N,03300.394,E,1,12,1.0,0.0,M,0.0,M,,*61
$GPGSA,A,3,01,02,03,04,05,06,07,08,09,10,11,12,1.0,1.0,1.0*30
$GPRMC,080844.966,A,4008.510,N,03300.394,E,055.1,000.0,191124,000.0,W*7A
$GPGGA,080845.016,4008.510,N,03300.394,E,1,12,1.0,0.0,M,0.0,M,,*6E
$GPGSA,A,3,01,02,03,04,05,06,07,08,09,10,11,12,1.0,1.0,1.0*30
$GPRMC,080845.016,A,4008.510,N,03300.394,E,000.0,000.0,191124,000.0,W*74
$GPGGA,080845.066,4008.510,N,03300.394,E,1,12,1.0,0.0,M,0.0,M,,*69
$GPGSA,A,3,01,02,03,04,05,06,07,08,09,10,11,12,1.0,1.0,1.0*30
$GPRMC,080845.066,A,4008.510,N,03300.394,E,000.0,000.0,191124,000.0,W*73
$GPGGA,080845.116,4008.510,N,03300.394,E,1,12,1.0,0.0,M,0.0,M,,*6F
$GPGSA,A,3,01,02,03,04,05,06,07,08,09,10,11,12,1.0,1.0,1.0*30
$GPRMC,080845.116,A,4008.510,N,03300.394,E,000.0,000.0,191124,000.0,W*75
$GPGGA,080845.166,4008.510,N,03300.394,E,1,12,1.0,0.0,M,0.0,M,,*68
$GPGSA,A,3,01,02,03,04,05,06,07,08,09,10,11,12,1.0,1.0,1.0*30
$GPRMC,080845.166,A,4008.510,N,03300.394,E,000.0,000.0,191124,000.0,W*72
$GPGGA,080845.216,4008.510,N,03300.394,E,1,12,1.0,0.0,M,0.0,M,,*6C
$GPGSA,A,3,01,02,03,04,05,06,07,08,09,10,11,12,1.0,1.0,1.0*30
$GPRMC,080845.216,A,4008.510,N,03300.394,E,000.0,000.0,191124,000.0,W*76
$GPGGA,080845.266,4008.510,N,03300.394,E,1,12,1.0,0.0,M,0.0,M,,*6B
$GPGSA,A,3,01,02,03,04,05,06,07,08,09,10,11,12,1.0,1.0,1.0*30
$GPRMC,080845.266,A,4008.510,N,03300.394,E,072.0,180.0,191124,000.0,W*7D
$GPGGA,080845.316,4008.509,N,03300.394,E,1,12,1.0,0.0,M,0.0,M,,*65
$GPGSA,A,3,01,02,03,04,05,06,07,08,09,10,11,12,1.0,1.0,1.0*30
$GPRMC,080845.316,A,4008.509,N,03300.394,E,072.0,000.0,191124,000.0,W*7A
$GPGGA,080845.366,4008.509,N,03300.394,E,1,12,1.0,0.0,M,0.0,M,,*62
$GPGSA,A,3,01,02,03,04,05,06,07,08,09,10,11,12,1.0,1.0,1.0*30
$GPRMC,080845.366,A,4008.509,N,03300.394,E,000.0,000.0,191124,000.0,W*78
$GPGGA,080845.416,4008.509,N,03300.394,E,1,12,1.0,0.0,M,0.0,M,,*62
$GPGSA,A,3,01,02,03,04,05,06,07,08,09,10,11,12,1.0,1.0,1.0*30
$GPRMC,080845.416,A,4008.509,N,03300.394,E,000.0,000.0,191124,000.0,W*78
$GPGGA,080845.466,4008.509,N,03300.394,E,1,12,1.0,0.0,M,0.0,M,,*65
$GPGSA,A,3,01,02,03,04,05,06,07,08,09,10,11,12,1.0,1.0,1.0*30
$GPRMC,080845.466,A,4008.509,N,03300.394,E,000.0,000.0,191124,000.0,W*C2
$GPGGA,080845.516,4008.509,N,03300.394,E,1,12,1.0,0.0,M,0.0,M,,*63
$GPGSA,A,3,01,02,03,04,05,06,07,08,09,10,11,12,1.0,1.0,1.0*30
$GPRMC,080845.516,A,4008.509,N,03300.394,E,055.1,270.0,191124,000.0,W*21
$GPGGA,080845.566,4008.509,N,03300.393,E,1,12,1.0,0.0,M,0.0,M,,*63
$GPGSA,A,3,01,02,03,04,05,06,07,08,09,10,11,12,1.0,1.0,1.0*30
$GPRMC,080845.566,A,4008.509,N,03300.393,E,055.1,000.0,191124,000.0,W*78
$GPGGA,080845.616,4008.509,N,03300.393,E,1,12,1.0,0.0,M,0.0,M,,*67
$GPGSA,A,3,01,02,03,04,05,06,07,08,09,10,11,12,1.0,1.0,1.0*30
$GPRMC,080845.616,A,4008.509,N,03300.393,E,000.0,000.0,191124,000.0,W*7D
$GPGGA,080845.666,4008.509,N,03300.393,E,1,12,1.0,0.0,M,0.0,M,,*60
$GPGSA,A,3,01,02,03,04,05,06,07,08,09,10,11,12,1.0,1.0,1.0*30
$GPRMC,080845.666,A,4008.509,N,03300.393,E,000.0,000.0,191124,000.0,W*7A
$GPGGA,080845.716,4008.509,N,03300.393,E,1,12,1.0,0.0,M,0.0,M,,*66
$GPGSA,A,3,01,02,03,04,05,06,07,08,09,10,11,12,1.0,1.0,1.0*30
$GPRMC,080845.716,A,4008.509,N,03300.393,E,000.0,000.0,191124,000.0,W*7C
$GPGGA,080845.766,4008.509,N,03300.393,E,1,12,1.0,0.0,M,0.0,M,,*61
$GPGSA,A,3,01,02,03,04,05,06,07,08,09,10,11,12,1.0,1.0,1.0*30
$GPRMC,080845.766,A,4008.509,N,03300.393,E,000.0,000.0,191124,000.0,W*7B
$GPGGA,080845.816,4008.509,N,03300.393,E,1,12,1.0,0.0,M,0.0,M,,*69
$GPGSA,A,3,01,02,03,04,05,06,07,08,09,10,11,12,1.0,1.0,1.0*30
$GPRMC,080845.816,A,4008.509,N,03300.393,E,072.1,180.0,191124,000.0,W*7E
$GPGGA,080845.866,4008.508,N,03300.393,E,1,12,1.0,0.0,M,0.0,M,,*6F
$GPGSA,A,3,01,02,03,04,05,06,07,08,09,10,11,12,1.0,1.0,1.0*30
$GPRMC,080845.866,A,4008.508,N,03300.393,E,072.1,000.0,191124,000.0,W*71
$GPGGA,080845.916,4008.508,N,03300.393,E,1,12,1.0,0.0,M,0.0,M,,*69
$GPGSA,A,3,01,02,03,04,05,06,07,08,09,10,11,12,1.0,1.0,1.0*30
$GPRMC,080845.916,A,4008.508,N,03300.393,E,000.0,000.0,191124,000.0,W*73
$GPGGA,080845.966,4008.508,N,03300.393,E,1,12,1.0,0.0,M,0.0,M,,*6E
$GPGSA,A,3,01,02,03,04,05,06,07,08,09,10,11,12,1.0,1.0,1.0*30
$GPRMC,080845.966,A,4008.508,N,03300.393,E,000.0,000.0,191124,000.0,W*96
$GPGGA,080846.016,4008.508,N,03300.393,E,1,12,1.0,0.0,M,0.0,M,,*63
$GPGSA,A,3,01,02,03,04,05,06,07,08,09,10,11,12,1.0,1.0,1.0*BE
$GPRMC,080846.016,A,4008.508,N,03300.393,E,000.0,000.0,191124,000.0,W*79
$GPGGA,080846.066,4008.508,N,03300.393,E,1,12,1.0,0.0,M,0.0,M,,*64
$GPGSA,A,3,01,02,03,04,05,06,07,08,09,10,11,12,1.0,1.0,1.0*30
$GPRMC,080846.066,A,4008.508,N,03300.393,E,000.0,000.0,191124,000.0,W*7E
$GPGGA,080846.116,4008.508,N,03300.393,E,1,12,1.0,0.0,M,0.0,M,,*62
$GPGSA,A,3,01,02,03,04,05,06,07,08,09,10,11,12,1.0,1.0,1.0*AB
$GPRMC,080846.116,A,4008.508,N,03300.393,E,055.1,270.0,191124,000.0,W*7C
$GPGGA,080846.166,4008.508,N,03300.392,E,1,12,1.0,0.0,M,0.0,M,,*64
$GPGSA,A,3,01,02,03,04,05,06,07,08,09,10,11,12,1.0,1.0,1.0*30
$GPRMC,080846.166,A,4008.508,N,03300.392,E,055.1,000.0,191124,000.0,W*7F
$GPGGA,080846.216,4008.508,N,03300.392,E,1,12,1.0,0.0,M,0.0,M,,*60
$GPGSA,A,3,01,02,03,04,05,06,07,08,09,10,11,12,1.0,1.0,1.0*30
$GPRMC,080846.216,A,4008.508,N,03300.392,E,000.0,000.0,191124,000.0,W*7A
$GPGGA,080846.266,4008.508,N,03300.392,E,1,12,1.0,0.0,M,0.0,M,,*67
$GPGSA,A,3,01,02,03,04,05,06,07,08,09,10,11,12,1.0,1.0,1.0*30
$GPRMC,080846.266,A,4008.508,N,03300.392,E,000.0,000.0,191124,000.0,W*7D
$GPGGA,080846.316,4008.508,N,03300.392,E,1,12,1.0,0.0,M,0.0,M,,*61
$GPGSA,A,3,01,02,03,04,05,06,07,08,09,10,11,12,1.0,1.0,1.0*30
$GPRMC,080846.316,A,4008.508,N,03300.392,E,000.0,000.0,191124,000.0,W*7B
$GPGGA,080846.366,4008.508,N,03300.392,E,1,12,1.0,0.0,M,0.0,M,,*43
$GPGSA,A,3,01,02,03,04,05,06,07,08,09,10,11,12,1.0,1.0,1.0*30
$GPRMC,080846.366,A,4008.508,N,03300.392,E,000.0,000.0,191124,000.0,W*7C
$GPGGA,080846.416,4008.508,N,03300.392,E,1,12,1.0,0.0,M,0.0,M,,*66
$GPGSA,A,3,01,02,03,04,05,06,07,08,09,10,11,12,1.0,1.0,1.0*30
$GPRMC,080846.416,A,4008.508,N,03300.392,E,072.1,180.0,191124,000.0,W*71
$GPGGA,080846.466,4008.507,N,03300.392,E,1,12,1.0,0.0,M,0.0,M,,*46
$GPGSA,A,3,01,02,03,04,05,06,07,08,09,10,11,12,1.0,1.0,1.0*30
$GPRMC,080846.466,A,4008.507,N,03300.392,E,072.1,000.0,191124,000.0,W*70
$GPGGA,080846.516,4008.507,N,03300.392,E,1,12,1.0,0.0,M,0.0,M,,*68
$GPGSA,A,3,01,02,03,04,05,06,07,08,09,10,11,12,1.0,1.0,1.0*30
$GPRMC,080846.516,A,4008.507,N,03300.392,E,000.0,000.0,191124,000.0,W*72
$GPGGA,080846.566,4008.507,N,03300.392,E,1,12,1.0,0.0,M,0.0,M,,*6F
$GPGSA,A,3,01,02,03,04,05,06,07,08,09,10,11,12,1.0,1.0,1.0*30
$GPRMC,080846.566,A,4008.507,N,03300.392,E,000.0,000.0,191124,000.0,W*75
$GPGGA,080846.616,4008.507,N,03300.392,E,1,12,1.0,0.0,M,0.0,M,,*6B
$GPGSA,A,3,01,02,03,04,05,06,07,08,09,10,11,12,1.0,1.0,1.0*30
$GPRMC,080846.616,A,4008.507,N,03300.392,E,000.0,000.0,191124,000.0,W*71
$GPGGA,080846.666,4008.507,N,03300.392,E,1,12,1.0,0.0,M,0.0,M,,*6C
$GPGSA,A,3,01,02,03,04,05,06,07,08,09,10,11,12,1.0,1.0,1.0*30
$GPRMC,080846.666,A,4008.507,N,03300.392,E,000.0,000.0,191124,000.0,W*76
$GPGGA,080846.716,4008.507,N,03300.392,E,1,12,1.0,0.0,M,0.0,M,,*6A
$GPGSA,A,3,01,02,03,04,05,06,07,08,09,10,11,12,1.0,1.0,1.0*D1
$GPRMC,080846.716,A,4008.507,N,03300.392,E,055.1,270.0,191124,000.0,W*74
$GPGGA,080846.766,4008.507,N,03300.391,E,1,12,1.0,0.0,M,0.0,M,,*6E
$GPGSA,A,3,01,02,03,04,05,06,07,08,09,10,11,12,1.0,1.0,1.0*30
$GPRMC,080846.766,A,4008.507,N,03300.391,E,055.1,000.0,191124,000.0,W*75
$GPGGA,080846.816,4008.507,N,03300.391,E,1,12,1.0,0.0,M,0.0,M,,*66
$GPGSA,A,3,01,02,03,04,05,06,07,08,09,10,11,12,1.0,1.0,1.0*30
$GPRMC,080846.816,A,4008.507,N,03300.391,E,000.0,000.0,191124,000.0,W*7C
$GPGGA,080846.866,4008.507,N,03300.391,E,1,12,1.0,0.0,M,0.0,M,,*61
$GPGSA,A,3,01,02,03,04,05,06,07,08,09,10,11,12,1.0,1.0,1.0*A8
$GPRMC,080846.866,A,4008.507,N,03300.391,E,000.0,000.0,191124,000.0,W*7B
$GPGGA,080846.916,4008.507,N,03300.391,E,1,12,1.0,0.0,M,0.0,M,,*67
$GPGSA,A,3,01,02,03,04,05,06,07,08,09,10,11,12,1.0,1.0,1.0*30
$GPRMC,080846.916,A,4008.507,N,03300.391,E,000.0,000.0,191124,000.0,W*7D
$GPGGA,080846.966,4008.507,N,03300.391,E,1,12,1.0,0.0,M,0.0,M,,*60
$GPGSA,A,3,01,02,03,04,05,06,07,08,09,10,11,12,1.0,1.0,1.0*30
$GPRMC,080846.966,A,4008.507,N,03300.391,E,072.0,180.0,191124,000.0,W*76
$GPGGA,080847.016,4008.506,N,03300.391,E,1,12,1.0,0.0,M,0.0,M,,*6E
$GPGSA,A,3,01,02,03,04,05,06,07,08,09,10,11,12,1.0,1.0,1.0*30
$GPRMC,080847.016,A,4008.506,N,03300.391,E,072.0,000.0,191124,000.0,W*71
$GPGGA,080847.066,4008.506,N,03300.391,E,1,12,1.0,0.0,M,0.0,M,,*66
$GPGSA,A,3,01,02,03,04,05,06,07,08,09,10,11,12,1.0,1.0,1.0*30
$GPRMC,080847.066,A,4008.506,N,03300.391,E,000.0,000.0,191124,000.0,W*73
$GPGGA,080847.116,4008.506,N,03300.391,E,1,12,1.0,0.0,M,0.0,M,,*6F
$GPGSA,A,3,01,02,03,04,05,06,07,08,09,10,11,12,1.0,1.0,1.0*30
$GPRMC,080847.116,A,4008.506,N,03300.391,E,000.0,000.0,191124,000.0,W*75
$GPGGA,080847.166,4008.506,N,03300.391,E,1,12,1.0,0.0,M,0.0,M,,*68
$GPGSA,A,3,01,02,03,04,05,06,07,08,09,10,11,12,1.0,1.0,1.0*A4
$GPRMC,080847.166,A,4008.506,N,03300.391,E,000.0,000.0,191124,000.0,W*72
$GPGGA,080847.216,4008.506,N,03300.391,E,1,12,1.0,0.0,M,0.0,M,,*6C
$GPGSA,A,3,01,02,03,04,05,06,07,08,09,10,11,12,1.0,1.0,1.0*30
$GPRMC,080847.216,A,4008.506,N,03300.391,E,000.0,000.0,191124,000.0,W*76
$GPGGA,080847.266,4008.506,N,03300.391,E,1,12,1.0,0.0,M,0.0,M,,*97
$GPGSA,A,3,01,02,03,04,05,06,07,08,09,10,11,12,1.0,1.0,1.0*30
$GPRMC,080847.266,A,4008.506,N,03300.391,E,000.0,000.0,191124,000.0,W*71
$GPGGA,080847.316,4008.506,N,03300.391,E,1,12,1.0,0.0,M,0.0,M,,*6D
$GPGSA,A,3,01,02,03,04,05,06,07,08,09,10,11,12,1.0,1.0,1.0*30
$GPRMC,080847.316,A,4008.506,N,03300.391,E,055.1,270.0,191124,000.0,W*C3
$GPGGA,080847.366,4008.506,N,03300.390,E,1,12,1.0,0.0,M,0.0,M,,*6B
$GPGSA,A,3,01,02,03,04,05,06,07,08,09,10,11,12,1.0,1.0,1.0*30
$GPRMC,080847.366,A,4008.506,N,03300.390,E,055.1,000.0,191124,000.0,W*70
$GPGGA,080847.416,4008.506,N,03300.390,E,1,12,1.0,0.0,M,0.0,M,,*6B
$GPGSA,A,3,01,02,03,04,05,06,07,08,09,10,11,12,1.0,1.0,1.0*30
$GPRMC,080847.416,A,4008.506,N,03300.390,E,000.0,000.0,191124,000.0,W*71
$GPGGA,080847.466,4008.506,N,03300.390,E,1,12,1.0,0.0,M,0.0,M,,*6C
$GPGSA,A,3,01,02,03,04,05,06,07,08,09,10,11,12,1.0,1.0,1.0*30
$GPRMC,080847.466,A,4008.506,N,03300.390,E,000.0,000.0,191124,000.0,W*76
$GPGGA,080847.516,4008.506,N,03300.390,E,1,12,1.0,0.0,M,0.0,M,,*6A
$GPGSA,A,3,01,02,03,04,05,06,07,08,09,10,11,12,1.0,1.0,1.0*30
$GPRMC,080847.516,A,4008.506,N,03300.390,E,000.0,000.0,191124,000.0,W*70
$GPGGA,080847.566,4008.506,N,03300.390,E,1,12,1.0,0.0,M,0.0,M,,*6D
$GPGSA,A,3,01,02,03,04,05,06,07,08,09,10,11,12,1.0,1.0,1.0*30
$GPRMC,080847.566,A,4008.506,N,03300.390,E,072.1,180.0,191124,000.0,W*7A
$GPGGA,080847.616,4008.505,N,03300.390,E,1,12,1.0,0.0,M,0.0,M,,*6A
$GPGSA,A,3,01,02,03,04,05,06,07,08,09,10,11,12,1.0,1.0,1.0*30
$GPRMC,080847.616,A,4008.505,N,03300.390,E,072.1,000.0,191124,000.0,W*74
$GPGGA,080847.666,4008.505,N,03300.390,E,1,12,1.0,0.0,M,0.0,M,,*6D
$GPGSA,A,3,01,02,03,04,05,06,07,08,09,10,11,12,1.0,1.0,1.0*30
$GPRMC,080847.666,A,4008.505,N,03300.390,E,000.0,000.0,191124,000.0,W*1C
$GPGGA,080847.716,4008.505,N,03300.390,E,1,12,1.0,0.0,M,0.0,M,,*6B
$GPGSA,A,3,01,02,03,04,05,06,07,08,09,10,11,12,1.0,1.0,1.0*30
$GPRMC,080847.716,A,4008.505,N,03300.390,E,000.0,000.0,191124,000.0,W*71
$GPGGA,080847.766,4008.505,N,03300.390,E,1,12,1.0,0.0,M,0.0,M,,*6C
$GPGSA,A,3,01,02,03,04,05,06,07,08,09,10,11,12,1.0,1.0,1.0*30
$GPRMC,080847.766,A,4008.505,N,03300.390,E,000.0,000.0,191124,000.0,W*76
$GPGGA,080847.816,4008.505,N,03300.390,E,1,12,1.0,0.0,M,0.0,M,,*64
$GPGSA,A,3,01,02,03,04,05,06,07,08,09,10,11,12,1.0,1.0,1.0*30
$GPRMC,080847.816,A,4008.505,N,03300.390,E,000.0,000.0,191124,000.0,W*7E
$GPGGA,080847.866,4008.505,N,03300.390,E,1,12,1.0,0.0,M,0.0,M,,*63
$GPGSA,A,3,01,02,03,04,05,06,07,08,09,10,11,12,1.0,1.0,1.0*30
$GPRMC,080847.866,A,4008.505,N,03300.390,E,000.0,000.0,191124,000.0,W*79
$GPGGA,080847.916,4008.505,N,03300.390,E,1,12,1.0,0.0,M,0.0,M,,*65
$GPGSA,A,3,01,02,03,04,05,06,07,08,09,10,11,12,1.0,1.0,1.0*30
$GPRMC,080847.916,A,4008.505,N,03300.390,E,055.1,270.0,191124,000.0,W*7B
$GPGGA,080847.966,4008.505,N,03300.389,E,1,12,1.0,0.0,M,0.0,M,,*6A
$GPGSA,A,3,01,02,03,04,05,06,07,08,09,10,11,12,1.0,1.0,1.0*30
$GPRMC,080847.966,A,4008.505,N,03300.389,E,055.1,000.0,191124,000.0,W*71
$GPGGA,080848.016,4008.505,N,03300.389,E,1,12,1.0,0.0,M,0.0,M,,*6B
$GPGSA,A,3,01,02,03,04,05,06,07,08,09,10,11,12,1.0,1.0,1.0*30
$GPRMC,080848.016,A,4008.505,N,03300.389,E,000.0,000.0,191124,000.0,W*71
$GPGGA,080848.066,4008.505,N,03300.389,E,1,12,1.0,0.0,M,0.0,M,,*1C
$GPGSA,A,3,01,02,03,04,05,06,07,08,09,10,11,12,1.0,1.0,1.0*50
$GPRMC,080848.066,A,4008.505,N,03300.389,E,000.0,000.0,191124,000.0,W*76
$GPGGA,080848.116,4008.505,N,03300.389,E,1,12,1.0,0.0,M,0.0,M,,*6A
$GPGSA,A,3,01,02,03,04,05,06,07,08,09,10,11,12,1.0,1.0,1.0*30
$GPRMC,080848.116,A,4008.505,N,03300.389,E,072.1,180.0,191124,000.0,W*7D
$GPGGA,080848.166,4008.504,N,03300.389,E,1,12,1.0,0.0,M,0.0,M,,*6C
$GPGSA,A,3,01,02,03,04,05,06,07,08,09,10,11,12,1.0,1.0,1.0*DD
$GPRMC,080848.166,A,4008.504,N,03300.389,E,072.1,000.0,191124,000.0,W*72
$GPGGA,080848.216,4008.504,N,03300.389,E,1,12,1.0,0.0,M,0.0,M,,*68
$GPGSA,A,3,01,02,03,04,05,06,07,08,09,10,11,12,1.0,1.0,1.0*30
$GPRMC,080848.216,A,4008.504,N,03300.389,E,000.0,000.0,191124,000.0,W*72
$GPGGA,080848.266,4008.504,N,03300.389,E,1,12,1.0,0.0,M,0.0,M,,*6F
$GPGSA,A,3,01,02,03,04,05,06,07,08,09,10,11,12,1.0,1.0,1.0*30
$GPRMC,080848.266,A,4008.504,N,03300.389,E,000.0,000.0,191124,000.0,W*75
$GPGGA,080848.316,4008.504,N,03300.389,E,1,12,1.0,0.0,M,0.0,M,,*69
$GPGSA,A,3,01,02,03,04,05,06,07,08,09,10,11,12,1.0,1.0,1.0*30
$GPRMC,080848.316,A,4008.504,N,03300.389,E,000.0,000.0,191124,000.0,W*73
$GPGGA,080848.366,4008.504,N,03300.389,E,1,12,1.0,0.0,M,0.0,M,,*6E
$GPGSA,A,3,01,02,03,04,05,06,07,08,09,10,11,12,1.0,1.0,1.0*30
$GPRMC,080848.366,A,4008.504,N,03300.389,E,000.0,000.0,191124,000.0,W*74
$GPGGA,080848.416,4008.504,N,03300.389,E,1,12,1.0,0.0,M,0.0,M,,*6E
$GPGSA,A,3,01,02,03,04,05,06,07,08,09,10,11,12,1.0,1.0,1.0*30
$GPRMC,080848.416,A,4008.504,N,03300.389,E,000.0,000.0,191124,000.0,W*74
$GPGGA,080848.466,4008.504,N,03300.389,E,1,12,1.0,0.0,M,0.0,M,,*69
$GPGSA,A,3,01,02,03,04,05,06,07,08,09,10,11,12,1.0,1.0,1.0*30
$GPRMC,080848.466,A,4008.504,N,03300.389,E,000.0,000.0,191124,000.0,W*73
$GPGGA,080848.516,4008.504,N,03300.389,E,1,12,1.0,0.0,M,0.0,M,,*6F
$GPGSA,A,3,01,02,03,04,05,06,07,08,09,10,11,12,1.0,1.0,1.0*30
$GPRMC,080848.516,A,4008.504,N,03300.389,E,055.1,270.0,191124,000.0,W*71
$GPGGA,080848.566,4008.504,N,03300.388,E,1,12,1.0,0.0,M,0.0,M,,*69
$GPGSA,A,3,01,02,03,04,05,06,07,08,09,10,11,12,1.0,1.0,1.0*30
$GPRMC,080848.566,A,4008.504,N,03300.388,E,055.1,000.0,191124,000.0,W*72
$GPGGA,080848.616,4008.504,N,03300.388,E,1,12,1.0,0.0,M,0.0,M,,*6D
$GPGSA,A,3,01,02,03,04,05,06,07,08,09,10,11,12,1.0,1.0,1.0*30
$GPRMC,080848.616,A,4008.504,N,03300.388,E,000.0,000.0,191124,000.0,W*77
$GPGGA,080848.666,4008.504,N,03300.388,E,1,12,1.0,0.0,M,0.0,M,,*6A
$GPGSA,A,3,01,02,03,04,05,06,07,08,09,10,11,12,1.0,1.0,1.0*30
$GPRMC,080848.666,A,4008.504,N,03300.388,E,072.0,180.0,191124,000.0,W*58
$GPGGA,080848.716,4008.503,N,03300.388,E,1,12,1.0,0.0,M,0.0,M,,*6B
$GPGSA,A,3,01,02,03,04,05,06,07,08,09,10,11,12,1.0,1.0,1.0*30
$GPRMC,080848.716,A,4008.503,N,03300.388,E,072.0,000.0,191124,000.0,W*74
$GPGGA,080848.766,4008.503,N,03300.388,E,1,12,1.0,0.0,M,0.0,M,,*6C
$GPGSA,A,3,01,02,03,04,05,06,07,08,09,10,11,12,1.0,1.0,1.0*30
$GPRMC,080848.766,A,4008.503,N,03300.388,E,000.0,000.0,191124,000.0,W*76
$GPGGA,080848.816,4008.503,N,03300.388,E,1,12,1.0,0.0,M,0.0,M,,*64
$GPGSA,A,3,01,02,03,04,05,06,07,08,09,10,11,12,1.0,1.0,1.0*30
$GPRMC,080848.816,A,4008.503,N,03300.388,E,000.0,000.0,191124,000.0,W*7E
$GPGGA,080848.866,4008.503,N,03300.388,E,1,12,1.0,0.0,M,0.0,M,,*63
$GPGSA,A,3,01,02,03,04,05,06,07,08,09,10,11,12,1.0,1.0,1.0*99
$GPRMC,080848.866,A,4008.503,N,03300.388,E,000.0,000.0,191124,000.0,W*79
$GPGGA,080848.916,4008.503,N,03300.388,E,1,12,1.0,0.0,M,0.0,M,,*65
$GPGSA,A,3,01,02,03,04,05,06,07,08,09,10,11,12,1.0,1.0,1.0*30
$GPRMC,080848.916,A,4008.503,N,03300.388,E,000.0,000.0,191124,000.0,W*7F
$GPGGA,080848.966,4008.503,N,03300.388,E,1,12,1.0,0.0,M,0.0,M,,*62
$GPGSA,A,3,01,02,03,04,05,06,07,08,09,10,11,12,1.0,1.0,1.0*30
$GPRMC,080848.966,A,4008.503,N,03300.388,E,000.0,000.0,191124,000.0,W*78
$GPGGA,080849.016,4008.503,N,03300.388,E,1,12,1.0,0.0,M,0.0,M,,*6D
$GPGSA,A,3,01,02,03,04,05,06,07,08,09,10,11,12,1.0,1.0,1.0*30
$GPRMC,080849.016,A,4008.503,N,03300.388,E,000.0,000.0,191124,000.0,W*77
$GPGGA,080849.066,4008.503,N,03300.388,E,1,12,1.0,0.0,M,0.0,M,,*6A
$GPGSA,A,3,01,02,03,04,05,06,07,08,09,10,11,12,1.0,1.0,1.0*30
$GPRMC,080849.066,A,4008.503,N,03300.388,E,000.0,000.0,191124,000.0,W*9B
$GPGGA,080849.116,4008.503,N,03300.388,E,1,12,1.0,0.0,M,0.0,M,,*6C
$GPGSA,A,3,01,02,03,04,05,06,07,08,09,10,11,12,1.0,1.0,1.0*30
$GPRMC,080849.116,A,4008.503,N,03300.388,E,055.1,270.0,191124,000.0,W*72
$GPGGA,080849.166,4008.503,N,03300.387,E,1,12,1.0,0.0,M,0.0,M,,*64
$GPGSA,A,3,01,02,03,04,05,06,07,08,09,10,11,12,1.0,1.0,1.0*30
$GPRMC,080849.166,A,4008.503,N,03300.387,E,055.1,000.0,191124,000.0,W*7F
$GPGGA,080849.216,4008.503,N,03300.387,E,1,12,1.0,0.0,M,0.0,M,,*60
$GPGSA,A,3,01,02,03,04,05,06,07,08,09,10,11,12,1.0,1.0,1.0*30
$GPRMC,080849.216,A,4008.503,N,03300.387,E,000.0,000.0,191124,000.0,W*7A
$GPGGA,080849.266,4008.503,N,03300.387,E,1,12,1.0,0.0,M,0.0,M,,*67
$GPGSA,A,3,01,02,03,04,05,06,07,08,09,10,11,12,1.0,1.0,1.0*30
$GPRMC,080849.266,A,4008.503,N,03300.387,E,072.1,180.0,191124,000.0,W*70
$GPGGA,080849.316,4008.502,N,03300.387,E,1,12,1.0,0.0,M,0.0,M,,*60
$GPGSA,A,3,01,02,03,04,05,06,07,08,09,10,11,12,1.0,1.0,1.0*30
$GPRMC,080849.316,A,4008.502,N,03300.387,E,072.1,000.0,191124,000.0,W*88
$GPGGA,080849.366,4008.502,N,03300.387,E,1,12,1.0,0.0,M,0.0,M,,*67
$GPGSA,A,3,01,02,03,04,05,06,07,08,09,10,11,12,1.0,1.0,1.0*30
$GPRMC,080849.366,A,4008.502,N,03300.387,E,000.0,000.0,191124,000.0,W*7D
$GPGGA,080849.416,4008.502,N,03300.387,E,1,12,1.0,0.0,M,0.0,M,,*67
$GPGSA,A,3,01,02,03,04,05,06,07,08,09,10,11,12,1.0,1.0,1.0*30
$GPRMC,080849.416,A,4008.502,N,03300.387,E,000.0,000.0,191124,000.0,W*7D
$GPGGA,080849.466,4008.502,N,03300.387,E,1,12,1.0,0.0,M,0.0,M,,*60
$GPGSA,A,3,01,02,03,04,05,06,07,08,09,10,11,12,1.0,1.0,1.0*30
$GPRMC,080849.466,A,4008.502,N,03300.387,E,000.0,000.0,191124,000.0,W*3D
$GPGGA,080849.516,4008.502,N,03300.387,E,1,12,1.0,0.0,M,0.0,M,,*66
$GPGSA,A,3,01,02,03,04,05,06,07,08,09,10,11,12,1.0,1.0,1.0*30
$GPRMC,080849.516,A,4008.502,N,03300.387,E,000.0,000.0,191124,000.0,W*40
$GPGGA,080849.566,4008.502,N,03300.387,E,1,12,1.0,0.0,M,0.0,M,,*61
$GPGSA,A,3,01,02,03,04,05,06,07,08,09,10,11,12,1.0,1.0,1.0*30
$GPRMC,080849.566,A,4008.502,N,03300.387,E,000.0,000.0,191124,000.0,W*7B
$GPGGA,080849.616,4008.502,N,03300.387,E,1,12,1.0,0.0,M,0.0,M,,*65
$GPGSA,A,3,01,02,03,04,05,06,07,08,09,10,11,12,1.0,1.0,1.0*30
$GPRMC,080849.616,A,4008.502,N,03300.387,E,000.0,000.0,191124,000.0,W*7F
$GPGGA,080849.666,4008.502,N,03300.387,E,1,12,1.0,0.0,M,0.0,M,,*4B
$GPGSA,A,3,01,02,03,04,05,06,07,08,09,10,11,12,1.0,1.0,1.0*30
$GPRMC,080849.666,A,4008.502,N,03300.387,E,000.0,000.0,191124,000.0,W*78
$GPGGA,080849.716,4008.502,N,03300.387,E,1,12,1.0,0.0,M,0.0,M,,*64
$GPGSA,A,3,01,02,03,04,05,06,07,08,09,10,11,12,1.0,1.0,1.0*CA
$GPRMC,080849.716,A,4008.502,N,03300.387,E,055.1,270.0,191124,000.0,W*7A
$GPGGA,080849.766,4008.502,N,03300.386,E,1,12,1.0,0.0,M,0.0,M,,*62
$GPGSA,A,3,01,02,03,04,05,06,07,08,09,10,11,12,1.0,1.0,1.0*30
$GPRMC,080849.766,A,4008.502,N,03300.386,E,055.1,000.0,191124,000.0,W*79
$GPGGA,080849.816,4008.502,N,03300.386,E,1,12,1.0,0.0,M,0.0,M,,*6A
$GPGSA,A,3,01,02,03,04,05,06,07,08,09,10,11,12,1.0,1.0,1.0*57
$GPRMC,080849.816,A,4008.502,N,03300.386,E,072.1,180.0,191124,000.0,W*7D
$GPGGA,080849.866,4008.501,N,03300.386,E,1,12,1.0,0.0,M,0.0,M,,*6E
$GPGSA,A,3,01,02,03,04,05,06,07,08,09,10,11,12,1.0,1.0,1.0*30
$GPRMC,080849.866,A,4008.501,N,03300.386,E,072.1,000.0,191124,000.0,W*70
$GPGGA,080849.916,4008.501,N,03300.386,E,1,12,1.0,0.0,M,0.0,M,,*68
$GPGSA,A,3,01,02,03,04,05,06,07,08,09,10,11,12,1.0,1.0,1.0*30
$GPRMC,080849.916,A,4008.501,N,03300.386,E,000.0,000.0,191124,000.0,W*72
$GPGGA,080849.966,4008.501,N,03300.386,E,1,12,1.0,0.0,M,0.0,M,,*6F
$GPGSA,A,3,01,02,03,04,05,06,07,08,09,10,11,12,1.0,1.0,1.0*30
$GPRMC,080849.966,A,4008.501,N,03300.386,E,000.0,000.0,191124,000.0,W*75
$GPGGA,080850.016,4008.501,N,03300.386,E,1,12,1.0,0.0,M,0.0,M,,*69
$GPGSA,A,3,01,02,03,04,05,06,07,08,09,10,11,12,1.0,1.0,1.0*30
$GPRMC,080850.016,A,4008.501,N,03300.386,E,000.0,000.0,191124,000.0,W*73
$GPGGA,080850.066,4008.501,N,03300.386,E,1,12,1.0,0.0,M,0.0,M,,*6E
$GPGSA,A,3,01,02,03,04,05,06,07,08,09,10,11,12,1.0,1.0,1.0*30
$GPRMC,080850.066,A,4008.501,N,03300.386,E,000.0,000.0,191124,000.0,W*74
$GPGGA,080850.116,4008.501,N,03300.386,E,1,12,1.0,0.0,M,0.0,M,,*68
$GPGSA,A,3,01,02,03,04,05,06,07,08,09,10,11,12,1.0,1.0,1.0*30
$GPRMC,080850.116,A,4008.501,N,03300.386,E,000.0,000.0,191124,000.0,W*72
$GPGGA,080850.166,4008.501,N,03300.386,E,1,12,1.0,0.0,M,0.0,M,,*32
$GPGSA,A,3,01,02,03,04,05,06,07,08,09,10,11,12,1.0,1.0,1.0*30
$GPRMC,080850.166,A,4008.501,N,03300.386,E,000.0,000.0,191124,000.0,W*75
$GPGGA,080850.216,4008.501,N,03300.386,E,1,12,1.0,0.0,M,0.0,M,,*6B
$GPGSA,A,3,01,02,03,04,05,06,07,08,09,10,11,12,1.0,1.0,1.0*30
$GPRMC,080850.216,A,4008.501,N,03300.386,E,000.0,000.0,191124,000.0,W*CD
$GPGGA,080850.266,4008.501,N,03300.386,E,1,12,1.0,0.0,M,0.0,M,,*6C
$GPGSA,A,3,01,02,03,04,05,06,07,08,09,10,11,12,1.0,1.0,1.0*30
$GPRMC,080850.266,A,4008.501,N,03300.386,E,000.0,000.0,191124,000.0,W*76
$GPGGA,080850.316,4008.501,N,03300.386,E,1,12,1.0,0.0,M,0.0,M,,*6A
$GPGSA,A,3,01,02,03,04,05,06,07,08,09,10,11,12,1.0,1.0,1.0*30
$GPRMC,080850.316,A,4008.501,N,03300.386,E,055.1,270.0,191124,000.0,W*74
$GPGGA,080850.366,4008.501,N,03300.385,E,1,12,1.0,0.0,M,0.0,M,,*6E
$GPGSA,A,3,01,02,03,04,05,06,07,08,09,10,11,12,1.0,1.0,1.0*30
$GPRMC,080850.366,A,4008.501,N,03300.385,E,055.1,000.0,191124,000.0,W*75
